Geometry_Type,Longitude,Latitude,Northing,Easting,CSU_ID,Chi_BuildingName,Chi_District,Chi_Region,Chi_UnitDescriptor,Chi_UnitNo,Chi_UnitPortion,Chi_FloorNum,Chi_FloorDescription,Chi_BlockDescriptor,Chi_BlockNo,Chi_EstateName,Chi_PhaseName,Chi_PhaseNo,Chi_VillageLocationName,Chi_VillageName,Chi_VillageBuildingNoFrom,Chi_VillageBuildingNoTo,Chi_StreetLocationName,Chi_StreetName,Chi_StreetBuildingNoFrom,Chi_StreetBuildingNoTo,Eng_BuildingName,Eng_District,Eng_Region,Eng_UnitDescriptor,Eng_UnitNo,Eng_UnitPortion,Eng_FloorNum,Eng_FloorDescription,Eng_BlockDescriptor,Eng_BlockNo,Eng_BlockDescriptorPrecedenceIndicator,Eng_EstateName,Eng_PhaseName,Eng_PhaseNo,Eng_VillageLocationName,Eng_VillageName,Eng_VillageBuildingNoFrom,Eng_VillageBuildingNoTo,Eng_StreetLocationName,Eng_StreetName,Eng_StreetBuildingNoFrom,Eng_StreetBuildingNoTo,GeoAddress
Point,114.12621,22.28124,815819,831046,3104715804T20050430,東苑臺,中西區,香港,室,102,,1,1樓,,,西環邨,,,,,,,,加多近街,52,60,EAST TERRACE,CENTRAL & WESTERN DISTRICT,HK,FLAT,102,,1,1/F,,,,SAI WAN ESTATE,,,,,,,,CADOGAN STREET,52,60,3104715804T20050430
Point,114.12519,22.28094,815786,830942,3097915806T20050430,西苑臺,中西區,香港,室,301,,3,3樓,,,西環邨,,,,,,,,,,,WEST TERRACE,CENTRAL & WESTERN DISTRICT,HK,FLAT,301,,3,3/F,,,,SAI WAN ESTATE,,,,,,,,,,,3093515784T20050430
Point,114.12573,22.28078,815768,830997,3099615762T20050430,南苑臺,中西區,香港,室,201,,2,2樓,,,西環邨,,,,,,,,,,,SOUTH TERRACE,CENTRAL & WESTERN DISTRICT,HK,FLAT,201,,2,2/F,,,,SAI WAN ESTATE,,,,,,,,,,,3099615762T20050430
Point,114.1256,22.28132,815828,830984,3099815836T20050430,北苑臺,中西區,香港,室,101,,1,1樓,,,西環邨,,,,,,,,,,,NORTH TERRACE,CENTRAL & WESTERN DISTRICT,HK,FLAT,101,,1,1/F,,,,SAI WAN ESTATE,,,,,,,,,,,3099815836T20050430
Point,114.12621,22.28124,815819,831046,3104715804T20050430,東苑臺,中西區,香港,室,102,,1,1樓,,,西環邨,,,,,,,,,,,EAST TERRACE,CENTRAL & WESTERN DISTRICT,HK,FLAT,102,,1,1/F,,,,SAI WAN ESTATE,,,,,,,,,,,3104715804T20050430
Point,114.12589,22.28132,815828,831014,3101515782T20050430,中苑臺,中西區,香港,室,101,,1,1樓,,,西環邨,,,,,,,,,,,CENTRAL TERRACE,CENTRAL & WESTERN DISTRICT,HK,FLAT,101,,1,1/F,,,,SAI WAN ESTATE,,,,,,,,,,,3101415829T20050430
Point,114.23764,22.26145,813629,842531,4253013634T20050430,,東區,香港,,,,,,,,環翠邨,,,,,,,,翠景街,3,,,EASTERN DISTRICT,HK,,,,,,,,,WAN TSUI ESTATE,,,,,,,,TSUI KING STREET,3,,4253013634T20050430
Point,114.22538,22.28219,815924,841267,4126515921T20050430,,東區,香港,,,,,,,,愛東邨,,,,,,,,愛德街,3,,,EASTERN DISTRICT,HK,,,,,,,,,OI TUNG ESTATE,,,,,,,,OI TAK STREET,3,,4126515921T20050430
Point,114.24184,22.26555,814082,842964,4295214074T20130816,,東區,香港,,,,,,,,漁灣邨,,,,,,,,柴灣道,365,,,EASTERN DISTRICT,HK,,,,,,,,,YUE WAN ESTATE,,,,,,,,CHAI WAN ROAD,365,,4295214074T20130816
Point,114.23626,22.26085,813561,842389,4238313558T20180523,,東區,香港,,,,,,,,連翠邨,,,,,,,,連城道,36,,,EASTERN DISTRICT,HK,,,,,,,,,LIN TSUI ESTATE,,,,,,,,LIN SHING ROAD,36,,4238313558T20180523
Point,114.23645,22.26453,813970,842408,4240913970T20160729,,東區,香港,,,,,,,,,,,,,,,,吉勝街,2,,,EASTERN DISTRICT,HK,,,,,,,,,,,,,,,,,KUT SHING STREET,2,,4240913970T20160729
Point,114.24184,22.26555,814082,842964,4294414092T20110120,漁安樓,東區,香港,室,201,,2,2樓,,,漁灣邨,,,,,,,,柴灣道,365,,YUE ON HSE,EASTERN DISTRICT,HK,FLAT,201,,2,2/F,,,,YUE WAN ESTATE,,,,,,,,CHAI WAN ROAD,365,,4295214074T20130816
Point,114.23764,22.26145,813629,842531,4252213638T20050430,蕙翠樓,東區,香港,室,201,,2,2樓,,,環翠邨,,,,,,,,翠景街,3,,WAI TSUI HSE,EASTERN DISTRICT,HK,FLAT,201,,2,2/F,,,,WAN TSUI ESTATE,,,,,,,,TSUI KING STREET,3,,4253013634T20050430
Point,114.24844,22.2614,813623,843644,4364613617T20050430,瑞樂樓,東區,香港,室,101,,1,1樓,,,小西灣邨,,,,,,,,小西灣道,10,,SUI LOK HSE,EASTERN DISTRICT,HK,FLAT,101,,1,1/F,,,,SIU SAI WAN ESTATE,,,,,,,,SIU SAI WAN ROAD,10,,4364613617T20050430
Point,114.20821,22.291,816899,839497,3949516898T20050430,民祥樓,東區,香港,室,G01,,,G樓,座,E,模範邨,,,,,,,,英皇道,740,748,MAN CHEUNG HSE,EASTERN DISTRICT,HK,FLAT,G01,,,G/F,BLK,E,Y,MODEL HOUSING ESTATE,,,,,,,,KING'S ROAD,740,748,3949516898T20050430
Point,114.2088,22.29078,816875,839558,3957216862T20050430,民康樓,東區,香港,室,101,,1,1樓,座,C1&C2,模範邨,,,,,,,,英皇道,766,,MAN HONG HSE,EASTERN DISTRICT,HK,FLAT,101,,1,1/F,BLKS,C1&C2,Y,MODEL HOUSING ESTATE,,,,,,,,KING'S ROAD,766,,3957216862T20050430
Point,114.2088,22.29078,816875,839558,3957216862T20050430,民康樓,東區,香港,室,101,,1,1樓,座,C1&C2,模範邨,,,,,,,,英皇道,770,,MAN HONG HSE,EASTERN DISTRICT,HK,FLAT,101,,1,1/F,BLKS,C1&C2,Y,MODEL HOUSING ESTATE,,,,,,,,KING'S ROAD,770,,3957216862T20050430
Point,114.20878,22.29016,816807,839556,3955716806T20050430,民順樓,東區,香港,室,G04,,,G樓,座,A,模範邨,,,,,,,,英皇道,786,,MAN SHUN HSE,EASTERN DISTRICT,HK,FLAT,G04,,,G/F,BLK,A,Y,MODEL HOUSING ESTATE,,,,,,,,KING'S ROAD,786,,3955716806T20050430
Point,114.25037,22.26106,813586,843844,4384313587T20050430,瑞泰樓,東區,香港,室,201,,2,2樓,,,小西灣邨,,,,,,,,小西灣道,10,,SUI TAI HSE,EASTERN DISTRICT,HK,FLAT,201,,2,2/F,,,,SIU SAI WAN ESTATE,,,,,,,,SIU SAI WAN ROAD,10,,4384313587T20050430
Point,114.20871,22.29036,816829,839549,3955116829T20050430,民景樓,東區,香港,室,G04,,,G樓,座,B,模範邨,,,,,,,,英皇道,782,,MAN KING HSE,EASTERN DISTRICT,HK,FLAT,G04,,,G/F,BLK,B,Y,MODEL HOUSING ESTATE,,,,,,,,KING'S ROAD,782,,3955116829T20050430
Point,114.2083,22.29038,816830,839506,3950516836T20050430,民樂樓,東區,香港,室,G01,,,G樓,座,F,模範邨,,,,,,,,英皇道,796,802C,MAN LOK HSE,EASTERN DISTRICT,HK,FLAT,G01,,,G/F,BLK,F,Y,MODEL HOUSING ESTATE,,,,,,,,KING'S ROAD,796,802C,3950516836T20050430
Point,114.23823,22.26227,813719,842592,4259013733T20050430,富翠樓,東區,香港,室,209,,2,2樓,,,環翠邨,,,,,,,,茵翠街,3,,FU TSUI HSE,EASTERN DISTRICT,HK,FLAT,209,,2,2/F,,,,WAN TSUI ESTATE,,,,,,,,YAN TSUI STREET,3,,4259013733T20050430
Point,114.2198,22.28121,815816,840692,4069715797T20050430,興康樓,東區,香港,室,101,,1,1樓,,,興東邨,,,,,,,,耀興道,53,,HING HONG HSE,EASTERN DISTRICT,HK,FLAT,101,,1,1/F,,,,HING TUNG ESTATE,,,,,,,,YIU HING ROAD,53,,4069715797T20050430
Point,114.23509,22.26222,813714,842268,4227013715T20050430,卓華樓,東區,香港,室,101,,1,1樓,,,興華(一)邨,,,,,,,,環翠道,11,,CHEUK WAH HSE,EASTERN DISTRICT,HK,FLAT,101,,1,1/F,,,,HING WAH (I) ESTATE,,,,,,,,WAN TSUI ROAD,11,,4227013715T20050430
Point,114.2088,22.29078,816875,839558,3957216862T20050430,民康樓,東區,香港,室,101,,1,1樓,座,C1&C2,模範邨,,,,,,,,英皇道,764,,MAN HONG HSE,EASTERN DISTRICT,HK,FLAT,101,,1,1/F,BLKS,C1&C2,Y,MODEL HOUSING ESTATE,,,,,,,,KING'S ROAD,764,,3957216862T20050430
Point,114.2277,22.28195,815897,841506,4150615897T20050430,愛平樓,東區,香港,室,101,,1,1樓,,,愛東邨,,,,,,,,愛賢街,18,,OI PING HSE,EASTERN DISTRICT,HK,FLAT,101,,1,1/F,,,,OI TUNG ESTATE,,,,,,,,OI YIN STREET,18,,4150615897T20050430
Point,114.22672,22.28084,815775,841405,4142315759T20050430,愛善樓,東區,香港,室,701,,7,7樓,,,愛東邨,,,,,,,,愛賢街,18,,OI SIN HSE,EASTERN DISTRICT,HK,FLAT,701,,7,7/F,,,,OI TUNG ESTATE,,,,,,,,OI YIN STREET,18,,4142315759T20050430
Point,114.2482,22.26185,813673,843619,4361913685T20050430,瑞富樓,東區,香港,室,101,,1,1樓,,,小西灣邨,,,,,,,,小西灣道,10,,SUI FU HSE,EASTERN DISTRICT,HK,FLAT,101,,1,1/F,,,,SIU SAI WAN ESTATE,,,,,,,,SIU SAI WAN ROAD,10,,4361913685T20050430
Point,114.24898,22.26075,813551,843700,4369913566T20050430,瑞喜樓,東區,香港,室,101,,1,1樓,,,小西灣邨,,,,,,,,小西灣道,10,,SUI HEI HSE,EASTERN DISTRICT,HK,FLAT,101,,1,1/F,,,,SIU SAI WAN ESTATE,,,,,,,,SIU SAI WAN ROAD,10,,4369913566T20050430
Point,114.23696,22.2624,813734,842461,4247313749T20050430,澤翠樓,東區,香港,室,201,,2,2樓,,,環翠邨,,,,,,,,華廈街,8,,CHAK TSUI HSE,EASTERN DISTRICT,HK,FLAT,201,,2,2/F,,,,WAN TSUI ESTATE,,,,,,,,WAH HA STREET,8,,4247313749T20050430
Point,114.21931,22.28154,815852,840641,4064315852T20050430,興祖樓,東區,香港,室,101,,1,1樓,,,興東邨,,,,,,,,耀興道,53,,HING CHO HSE,EASTERN DISTRICT,HK,FLAT,101,,1,1/F,,,,HING TUNG ESTATE,,,,,,,,YIU HING ROAD,53,,4064315852T20050430
Point,114.23393,22.26262,813758,842149,4214713760T20050430,豐興樓,東區,香港,室,301,,3,3樓,,,興華(二)邨,,,,,,,,環翠道,18,,FUNG HING HSE,EASTERN DISTRICT,HK,FLAT,301,,3,3/F,,,,HING WAH (II) ESTATE,,,,,,,,WAN TSUI ROAD,18,,4214713760T20050430
Point,114.20842,22.29092,816891,839518,3951616889T20050430,民寧樓,東區,香港,室,G01,,,G樓,座,D,模範邨,,,,,,,,英皇道,750,758,MAN NING HSE,EASTERN DISTRICT,HK,FLAT,G01,,,G/F,BLK,D,Y,MODEL HOUSING ESTATE,,,,,,,,KING'S ROAD,750,758,3951616889T20050430
Point,114.24131,22.26775,814326,842909,4290514326T20050430,翠福樓,東區,香港,室,201,,2,2樓,座,A,翠灣邨,,,,,,,,翠灣街,3,,TSUI FUK HSE,EASTERN DISTRICT,HK,FLAT,201,,2,2/F,BLK,A,Y,TSUI WAN ESTATE,,,,,,,,TSUI WAN STREET,3,,4290514326T20050430
Point,114.23998,22.26843,814401,842772,4276714405T20050430,翠康樓,東區,香港,室,201,,2,2樓,座,C,翠灣邨,,,,,,,,翠灣街,3,,TSUI HONG HSE,EASTERN DISTRICT,HK,FLAT,201,,2,2/F,BLK,C,Y,TSUI WAN ESTATE,,,,,,,,TSUI WAN STREET,3,,4276714405T20050430
Point,114.2277,22.28147,815845,841506,4150615846T20050430,愛澤樓,東區,香港,室,101,,1,1樓,,,愛東邨,,,,,,,,愛賢街,18,,OI CHAK HSE,EASTERN DISTRICT,HK,FLAT,101,,1,1/F,,,,OI TUNG ESTATE,,,,,,,,OI YIN STREET,18,,4150615846T20050430
Point,114.24094,22.2657,814099,842872,4286814101T20050430,漁豐樓,東區,香港,室,201,,2,2樓,,,漁灣邨,,,,,,,,柴灣道,365,,YUE FUNG HSE,EASTERN DISTRICT,HK,FLAT,201,,2,2/F,,,,YUE WAN ESTATE,,,,,,,,CHAI WAN ROAD,365,,4286814101T20050430
Point,114.24049,22.26826,814382,842825,4283014378T20050430,翠壽樓,東區,香港,室,201,,2,2樓,座,B,翠灣邨,,,,,,,,翠灣街,3,,TSUI SHOU HSE,EASTERN DISTRICT,HK,FLAT,201,,2,2/F,BLK,B,Y,TSUI WAN ESTATE,,,,,,,,TSUI WAN STREET,3,,4283014378T20050430
Point,114.23384,22.26304,813804,842140,4215913828T20050430,安興樓,東區,香港,室,101,,1,1樓,,,興華(二)邨,,,,,,,,環翠道,18,,ON HING HSE,EASTERN DISTRICT,HK,FLAT,101,,1,1/F,,,,HING WAH (II) ESTATE,,,,,,,,WAN TSUI ROAD,18,,4215913828T20050430
Point,114.24915,22.26176,813663,843717,4371813662T20050430,瑞福樓,東區,香港,室,101,,1,1樓,,,小西灣邨,,,,,,,,小西灣道,10,,SUI FUK HSE,EASTERN DISTRICT,HK,FLAT,101,,1,1/F,,,,SIU SAI WAN ESTATE,,,,,,,,SIU SAI WAN ROAD,10,,4371813662T20050430
Point,114.23917,22.26284,813782,842688,4268813770T20050430,喜翠樓,東區,香港,室,201,,2,2樓,,,環翠邨,,,,,,,,富翠街,6,,HEI TSUI HSE,EASTERN DISTRICT,HK,FLAT,201,,2,2/F,,,,WAN TSUI ESTATE,,,,,,,,FU TSUI STREET,6,,4268813770T20050430
Point,114.21965,22.28206,815910,840677,4067815909T20050430,興豐樓,東區,香港,室,101,,1,1樓,,,興東邨,,,,,,,,耀興道,53,,HING FUNG HSE,EASTERN DISTRICT,HK,FLAT,101,,1,1/F,,,,HING TUNG ESTATE,,,,,,,,YIU HING ROAD,53,,4067815909T20050430
Point,114.24853,22.26359,813865,843654,4365313866T20050430,瑞發樓,東區,香港,室,101,,1,1樓,,,小西灣邨,,,,,,,,小西灣道,10,,SUI FAT HSE,EASTERN DISTRICT,HK,FLAT,101,,1,1/F,,,,SIU SAI WAN ESTATE,,,,,,,,SIU SAI WAN ROAD,10,,4365313866T20050430
Point,114.25011,22.26205,813695,843816,4381613697T20050430,瑞隆樓,東區,香港,室,102,,1,1樓,,,小西灣邨,,,,,,,,小西灣道,10,,SUI LUNG HSE,EASTERN DISTRICT,HK,FLAT,102,,1,1/F,,,,SIU SAI WAN ESTATE,,,,,,,,SIU SAI WAN ROAD,10,,4381613697T20050430
Point,114.23951,22.26782,814334,842724,4273414334T20050430,翠寧樓,東區,香港,室,201,,2,2樓,座,D,翠灣邨,,,,,,,,翠灣街,3,,TSUI NING HSE,EASTERN DISTRICT,HK,FLAT,201,,2,2/F,BLK,D,Y,TSUI WAN ESTATE,,,,,,,,TSUI WAN STREET,3,,4273414334T20050430
Point,114.2419,22.26607,814140,842970,4297514131T20050430,漁泰樓,東區,香港,室,201,,2,2樓,,,漁灣邨,,,,,,,,柴灣道,365,,YUE TAI HSE,EASTERN DISTRICT,HK,FLAT,201,,2,2/F,,,,YUE WAN ESTATE,,,,,,,,CHAI WAN ROAD,365,,4297514131T20050430
Point,114.23401,22.2641,813922,842156,4215813921T20050430,裕興樓,東區,香港,室,301,,3,3樓,,,興華(二)邨,,,,,,,,環翠道,18,,YU HING HSE,EASTERN DISTRICT,HK,FLAT,301,,3,3/F,,,,HING WAH (II) ESTATE,,,,,,,,WAN TSUI ROAD,18,,4215813921T20050430
Point,114.22445,22.27656,815301,841171,4115615310T20050430,耀興樓,東區,香港,室,101,,1,1樓,,,耀東邨,,,,,,,,耀興道,12,,YIU HING HSE,EASTERN DISTRICT,HK,FLAT,101,,1,1/F,,,,YIU TUNG ESTATE,,,,,,,,YIU HING ROAD,12,,4115615310T20050430
Point,114.24806,22.26328,813831,843605,4360613831T20050430,瑞益樓,東區,香港,室,101,,1,1樓,,,小西灣邨,,,,,,,,小西灣道,10,,SUI YICK HSE,EASTERN DISTRICT,HK,FLAT,101,,1,1/F,,,,SIU SAI WAN ESTATE,,,,,,,,SIU SAI WAN ROAD,10,,4360613831T20050430
Point,114.2226,22.2846,816192,840980,4100416178T20050430,康瑞樓,東區,香港,室,101,,1,1樓,,,康東邨,,,,,,,,鯉景道,56,,HONG SHUI HSE,EASTERN DISTRICT,HK,FLAT,101,,1,1/F,,,,HONG TUNG ESTATE,,,,,,,,LEI KING ROAD,56,,4100416178T20050430
Point,114.2088,22.29078,816875,839558,3957216862T20050430,民康樓,東區,香港,室,101,,1,1樓,座,C1&C2,模範邨,,,,,,,,英皇道,774,,MAN HONG HSE,EASTERN DISTRICT,HK,FLAT,101,,1,1/F,BLKS,C1&C2,Y,MODEL HOUSING ESTATE,,,,,,,,KING'S ROAD,774,,3957216862T20050430
Point,114.2088,22.29078,816875,839558,3957216862T20050430,民康樓,東區,香港,室,101,,1,1樓,座,C1&C2,模範邨,,,,,,,,英皇道,762,,MAN HONG HSE,EASTERN DISTRICT,HK,FLAT,101,,1,1/F,BLKS,C1&C2,Y,MODEL HOUSING ESTATE,,,,,,,,KING'S ROAD,762,,3957216862T20050430
Point,114.24914,22.26227,813719,843716,4370213720T20050430,瑞滿樓,東區,香港,室,301,,3,3樓,,,小西灣邨,,,,,,,,小西灣道,10,,SUI MOON HSE,EASTERN DISTRICT,HK,FLAT,301,,3,3/F,,,,SIU SAI WAN ESTATE,,,,,,,,SIU SAI WAN ROAD,10,,4370213720T20050430
Point,114.22522,22.27799,815460,841251,4124215479T20050430,耀輝樓,東區,香港,室,101,,1,1樓,,,耀東邨,,,,,,,,耀興道,12,,YIU FAI HSE,EASTERN DISTRICT,HK,FLAT,101,,1,1/F,,,,YIU TUNG ESTATE,,,,,,,,YIU HING ROAD,12,,4124215479T20050430
Point,114.24083,22.26629,814164,842860,4284514150T20050430,漁順樓,東區,香港,室,201,,2,2樓,,,漁灣邨,,,,,,,,柴灣道,365,,YUE SHUN HSE,EASTERN DISTRICT,HK,FLAT,201,,2,2/F,,,,YUE WAN ESTATE,,,,,,,,CHAI WAN ROAD,365,,4284514150T20050430
Point,114.23251,22.26747,814295,842002,4200314296T20050430,民富樓,東區,香港,室,201,,2,2樓,,,興民邨,,,,,,,,大潭道,188,,MAN FU HSE,EASTERN DISTRICT,HK,FLAT,201,,2,2/F,,,,HING MAN ESTATE,,,,,,,,TAI TAM ROAD,188,,4200314296T20050430
Point,114.24785,22.26384,813893,843584,4358513893T20050430,瑞盛樓,東區,香港,室,101,,1,1樓,,,小西灣邨,,,,,,,,小西灣道,10,,SUI SHING HSE,EASTERN DISTRICT,HK,FLAT,101,,1,1/F,,,,SIU SAI WAN ESTATE,,,,,,,,SIU SAI WAN ROAD,10,,4358513893T20050430
Point,114.22804,22.28016,815699,841541,4149315703T20080402,愛逸樓,東區,香港,室,101,,1,1樓,,,愛東邨,,,,,,,,愛賢街,18,,OI YAT HSE,EASTERN DISTRICT,HK,FLAT,101,,1,1/F,,,,OI TUNG ESTATE,,,,,,,,OI YIN STREET,18,,4154115700T20121122
Point,114.22191,22.2786,815527,840909,4090715531T20050430,耀富樓,東區,香港,室,101,,1,1樓,,,耀東邨,,,,,,,,耀興道,39,,YIU FU HSE,EASTERN DISTRICT,HK,FLAT,101,,1,1/F,,,,YIU TUNG ESTATE,,,,,,,,YIU HING ROAD,39,,4090715531T20050430
Point,114.23717,22.26116,813596,842482,4249013597T20050430,盛翠樓,東區,香港,室,201,,2,2樓,,,環翠邨,,,,,,,,翠景街,7,,SHING TSUI HSE,EASTERN DISTRICT,HK,FLAT,201,,2,2/F,,,,WAN TSUI ESTATE,,,,,,,,TSUI KING STREET,7,,4249013597T20050430
Point,114.23285,22.26245,813738,842037,4203613739T20050430,寧興樓,東區,香港,室,101,,1,1樓,,,興華(二)邨,,,,,,,,環翠道,18,,NING HING HSE,EASTERN DISTRICT,HK,FLAT,101,,1,1/F,,,,HING WAH (II) ESTATE,,,,,,,,WAN TSUI ROAD,18,,4203613739T20050430
Point,114.22048,22.2802,815704,840762,4076215704T20050430,東霖苑,東區,香港,室,112A,,1,1樓,,,,,,,,,,,耀興道,63,,TUNG LAM COURT,EASTERN DISTRICT,HK,FLAT,112A,,1,1/F,,,,,,,,,,,,YIU HING ROAD,63,,4076215704T20050430
Point,114.2088,22.29078,816875,839558,3957216862T20050430,民康樓,東區,香港,室,101,,1,1樓,座,C1&C2,模範邨,,,,,,,,英皇道,768,,MAN HONG HSE,EASTERN DISTRICT,HK,FLAT,101,,1,1/F,BLKS,C1&C2,Y,MODEL HOUSING ESTATE,,,,,,,,KING'S ROAD,768,,3957216862T20050430
Point,114.20871,22.29036,816829,839549,3955116829T20050430,民景樓,東區,香港,室,G04,,,G樓,座,B,模範邨,,,,,,,,英皇道,778,,MAN KING HSE,EASTERN DISTRICT,HK,FLAT,G04,,,G/F,BLK,B,Y,MODEL HOUSING ESTATE,,,,,,,,KING'S ROAD,778,,3955116829T20050430
Point,114.23645,22.26189,813677,842408,4240813678T20050430,福翠樓,東區,香港,室,201,,2,2樓,,,環翠邨,,,,,,,,華廈街,10,,FOOK TSUI HSE,EASTERN DISTRICT,HK,FLAT,201,,2,2/F,,,,WAN TSUI ESTATE,,,,,,,,WAH HA STREET,10,,4240813678T20050430
Point,114.22121,22.27893,815563,840837,4083215560T20050430,耀華樓,東區,香港,室,105,,1,1樓,,,耀東邨,,,,,,,,耀興道,39,,YIU WAH HSE,EASTERN DISTRICT,HK,FLAT,105,,1,1/F,,,,YIU TUNG ESTATE,,,,,,,,YIU HING ROAD,39,,4083215560T20050430
Point,114.23682,22.26132,813614,842447,4244513611T20050430,怡翠樓,東區,香港,室,201,,2,2樓,,,環翠邨,,,,,,,,翠景街,9,,YEE TSUI HSE,EASTERN DISTRICT,HK,FLAT,201,,2,2/F,,,,WAN TSUI ESTATE,,,,,,,,TSUI KING STREET,9,,4244513611T20050430
Point,114.23305,22.26225,813717,842058,4205813718T20050430,展興樓,東區,香港,室,1,,,0樓,,,興華(二)邨,,,,,,,,環翠道,18,,CHIN HING HSE,EASTERN DISTRICT,HK,FLAT,1,,,0/F,,,,HING WAH (II) ESTATE,,,,,,,,WAN TSUI ROAD,18,,4205813718T20050430
Point,114.22138,22.27832,815496,840855,4085715495T20050430,耀樂樓,東區,香港,室,101,,1,1樓,,,耀東邨,,,,,,,,耀興道,39,,YIU LOK HSE,EASTERN DISTRICT,HK,FLAT,101,,1,1/F,,,,YIU TUNG ESTATE,,,,,,,,YIU HING ROAD,39,,4085715495T20050430
Point,114.2381,22.26159,813643,842579,4257813649T20050430,逸翠樓,東區,香港,室,101,,1,1樓,,,環翠邨,,,,,,,,茵翠街,5,,YAT TSUI HSE,EASTERN DISTRICT,HK,FLAT,101,,1,1/F,,,,WAN TSUI ESTATE,,,,,,,,YAN TSUI STREET,5,,4257813649T20050430
Point,114.22568,22.27584,815222,841298,4130115226T20050430,耀貴樓,東區,香港,室,101,,1,1樓,,,耀東邨,,,,,,,,耀興道,12,,YIU KWAI HSE,EASTERN DISTRICT,HK,FLAT,101,,1,1/F,,,,YIU TUNG ESTATE,,,,,,,,YIU HING ROAD,12,,4130115226T20050430
Point,114.23742,22.26132,813614,842508,4250613621T20050430,美翠樓,東區,香港,室,201,,2,2樓,,,環翠邨,,,,,,,,翠景街,5,,MEI TSUI HSE,EASTERN DISTRICT,HK,FLAT,201,,2,2/F,,,,WAN TSUI ESTATE,,,,,,,,TSUI KING STREET,5,,4250613621T20050430
Point,114.22325,22.27856,815523,841047,4106315526T20050430,耀豐樓,東區,香港,室,101,,1,1樓,,,耀東邨,,,,,,,,耀興道,12,,YIU FUNG HSE,EASTERN DISTRICT,HK,FLAT,101,,1,1/F,,,,YIU TUNG ESTATE,,,,,,,,YIU HING ROAD,12,,4106315526T20050430
Point,114.25009,22.26144,813628,843815,4384313587T20050430,瑞明樓,東區,香港,室,201,,2,2樓,,,小西灣邨,,,,,,,,小西灣道,10,,SUI MING HSE,EASTERN DISTRICT,HK,FLAT,201,,2,2/F,,,,SIU SAI WAN ESTATE,,,,,,,,SIU SAI WAN ROAD,10,,4381513631T20050430
Point,114.22538,22.28219,815924,841267,4126315945T20050430,愛寶樓,東區,香港,室,501,,5,5樓,,,愛東邨,,,,,,,,愛德街,3,,OI PO HSE,EASTERN DISTRICT,HK,FLAT,501,,5,5/F,,,,OI TUNG ESTATE,,,,,,,,OI TAK STREET,3,,4126515921T20050430
Point,114.23948,22.26301,813802,842721,4272213789T20050430,利翠樓,東區,香港,室,201,,2,2樓,,,環翠邨,,,,,,,,富翠街,2,,LEE TSUI HSE,EASTERN DISTRICT,HK,FLAT,201,,2,2/F,,,,WAN TSUI ESTATE,,,,,,,,FU TSUI STREET,2,,4272213789T20050430
Point,114.23303,22.26301,813801,842056,4204713807T20050430,和興樓,東區,香港,室,301,,3,3樓,,,興華(二)邨,,,,,,,,環翠道,18,,WO HING HSE,EASTERN DISTRICT,HK,FLAT,301,,3,3/F,,,,HING WAH (II) ESTATE,,,,,,,,WAN TSUI ROAD,18,,4204713807T20050430
Point,114.23854,22.26245,813739,842624,4262413752T20050430,貴翠樓,東區,香港,室,201,,2,2樓,,,環翠邨,,,,,,,,茵翠街,1,,KWAI TSUI HSE,EASTERN DISTRICT,HK,FLAT,201,,2,2/F,,,,WAN TSUI ESTATE,,,,,,,,YAN TSUI STREET,1,,4262413752T20050430
Point,114.2253,22.27635,815278,841258,4124615270T20050430,耀明樓,東區,香港,室,101,,1,1樓,,,耀東邨,,,,,,,,耀興道,12,,YIU MING HSE,EASTERN DISTRICT,HK,FLAT,101,,1,1/F,,,,YIU TUNG ESTATE,,,,,,,,YIU HING ROAD,12,,4124615270T20050430
Point,114.2356,22.26247,813741,842321,4230113697T20050430,美華樓,東區,香港,室,101,,1,1樓,,,興華(一)邨,,,,,,,,環翠道,11,,MAY WAH HSE,EASTERN DISTRICT,HK,FLAT,101,,1,1/F,,,,HING WAH (I) ESTATE,,,,,,,,WAN TSUI ROAD,11,,4232213742T20050430
Point,114.22566,22.27677,815324,841296,4128915333T20050430,耀昌樓,東區,香港,室,101,,1,1樓,,,耀東邨,,,,,,,,耀興道,12,,YIU CHEONG HSE,EASTERN DISTRICT,HK,FLAT,101,,1,1/F,,,,YIU TUNG ESTATE,,,,,,,,YIU HING ROAD,12,,4128915333T20050430
Point,114.22711,22.28145,815842,841445,4144515844T20050430,愛旭樓,東區,香港,室,101,,1,1樓,,,愛東邨,,,,,,,,愛賢街,18,,OI YUK HSE,EASTERN DISTRICT,HK,FLAT,101,,1,1/F,,,,OI TUNG ESTATE,,,,,,,,OI YIN STREET,18,,4144515844T20050430
Point,114.23147,22.26111,813590,841895,4191613570T20050430,秀峰樓,東區,香港,室,G1,,,0樓,座,3,峰華邨,,,,,,,,峰霞道,4,,SAU FUNG HSE,EASTERN DISTRICT,HK,FLAT,G1,,,0/F,BLK,3,Y,FUNG WAH ESTATE,,,,,,,,FUNG HA ROAD,4,,4191613570T20050430
Point,114.20871,22.29036,816829,839549,3955116829T20050430,民景樓,東區,香港,室,G04,,,G樓,座,B,模範邨,,,,,,,,英皇道,776,,MAN KING HSE,EASTERN DISTRICT,HK,FLAT,G04,,,G/F,BLK,B,Y,MODEL HOUSING ESTATE,,,,,,,,KING'S ROAD,776,,3955116829T20050430
Point,114.22175,22.27777,815435,840893,4089415434T20050430,耀福樓,東區,香港,室,101,,1,1樓,,,耀東邨,,,,,,,,耀興道,39,,YIU FOOK HSE,EASTERN DISTRICT,HK,FLAT,101,,1,1/F,,,,YIU TUNG ESTATE,,,,,,,,YIU HING ROAD,39,,4089415434T20050430
Point,114.23256,22.26559,814086,842008,4200614088T20050430,民逸樓,東區,香港,室,105,,1,1樓,,,興民邨,,,,,,,,大潭道,188,,MAN YAT HSE,EASTERN DISTRICT,HK,FLAT,105,,1,1/F,,,,HING MAN ESTATE,,,,,,,,TAI TAM ROAD,188,,4200614088T20050430
Point,114.231,22.26069,813544,841847,4186813520T20050430,曉峰樓,東區,香港,室,101,,1,1樓,座,2,峰華邨,,,,,,,,峰霞道,6,,HIU FUNG HSE,EASTERN DISTRICT,HK,FLAT,101,,1,1/F,BLK,2,Y,FUNG WAH ESTATE,,,,,,,,FUNG HA ROAD,6,,4186813520T20050430
Point,114.23342,22.26386,813895,842096,4209513894T20050430,樂興樓,東區,香港,室,101,,1,1樓,,,興華(二)邨,,,,,,,,環翠道,18,,LOK HING HSE,EASTERN DISTRICT,HK,FLAT,101,,1,1/F,,,,HING WAH (II) ESTATE,,,,,,,,WAN TSUI ROAD,18,,4209513894T20050430
Point,114.23257,22.26646,814182,842008,4200814183T20050430,民澤樓,東區,香港,室,105,,1,1樓,,,興民邨,,,,,,,,大潭道,188,,MAN CHAK HSE,EASTERN DISTRICT,HK,FLAT,105,,1,1/F,,,,HING MAN ESTATE,,,,,,,,TAI TAM ROAD,188,,4200814183T20050430
Point,114.23484,22.26268,813764,842243,4224313765T20050430,興翠樓,東區,香港,室,106,,1,1樓,,,興華(一)邨,,,,,,,,環翠道,11,,HING TSUI HSE,EASTERN DISTRICT,HK,FLAT,106,,1,1/F,,,,HING WAH (I) ESTATE,,,,,,,,WAN TSUI ROAD,11,,4224313765T20050430
Point,114.22272,22.27883,815552,840993,4099915537T20050430,耀安樓,東區,香港,室,101,,1,1樓,,,耀東邨,,,,,,,,耀興道,12,,YIU ON HSE,EASTERN DISTRICT,HK,FLAT,101,,1,1/F,,,,YIU TUNG ESTATE,,,,,,,,YIU HING ROAD,12,,4099915537T20050430
Point,114.24208,22.26413,813925,842989,4298913923T20090114,灣畔樓,東區,香港,室,101,,1,1樓,座,1,柴灣邨,,,,,,,,新廈街,300,,WAN POON HSE,EASTERN DISTRICT,HK,FLAT,101,,1,1/F,BLK,1,Y,CHAI WAN ESTATE,,,,,,,,SAN HA STREET,300,,4298913923T20090114
Point,114.24273,22.26459,813976,843056,4305413976T20090114,灣映樓,東區,香港,室,101,,1,1樓,座,2,柴灣邨,,,,,,,,新廈街,300,,WAN YING HSE,EASTERN DISTRICT,HK,FLAT,101,,1,1/F,BLK,2,Y,CHAI WAN ESTATE,,,,,,,,SAN HA STREET,300,,4305413976T20090114
Point,114.24037,22.2674,814287,842812,4281314286T20050430,翠祿樓,東區,香港,室,101,,1,1樓,,,翠樂邨,,,,,,,,翠灣街,26,,TSUI LUK HSE,EASTERN DISTRICT,HK,FLAT,101,,1,1/F,,,,TSUI LOK ESTATE,,,,,,,,TSUI WAN STREET,26,,4281314286T20050430
Point,114.24765,22.26249,813744,843563,4356613738T20050430,瑞強樓,東區,香港,室,102,,1,1樓,,,小西灣邨,,,,,,,,小西灣道,10,,SUI KEUNG HSE,EASTERN DISTRICT,HK,FLAT,102,,1,1/F,,,,SIU SAI WAN ESTATE,,,,,,,,SIU SAI WAN ROAD,10,,4356613738T20050430
Point,114.23645,22.26453,813970,842408,4239614002T20160729,華欣樓,東區,香港,室,101,,1,1樓,,,華廈邨,,,,,,,,吉勝街,2,,WAH YAN HOUSE,EASTERN DISTRICT,HK,FLAT,101,,1,1/F,,,,WAH HA ESTATE,,,,,,,,KUT SHING STREET,2,,4240913970T20160729
Point,114.23626,22.26085,813561,842389,4238313561P20180516,連翠樓,東區,香港,室,101,,1,1樓,,,連翠邨,,,,,,,,連城道,36,,LIN TSUI HOUSE,EASTERN DISTRICT,HK,FLAT,101,,1,1/F,,,,LIN TSUI ESTATE,,,,,,,,LIN SHING ROAD,36,,4238313558T20180523
Point,114.24191,22.26697,814240,842971,4298414222T20201005,漁進樓,東區,香港,室,101,,1,1樓,,,漁灣邨,,,,,,,,柴灣道,365,,YUE CHUN HOUSE,EASTERN DISTRICT,HK,FLAT,101,,1,1/F,,,,YUE WAN ESTATE,,,,,,,,CHAI WAN ROAD,365,,4298414222T20201005
Point,113.8659,22.25318,812744,804214,0421212747T20050430,天財樓,離島區,新界,室,101,,1,1樓,,,龍田邨,,,大嶼山,大澳,,,,,,,TIN CHOI HSE,ISLANDS DISTRICT,NT,FLAT,101,,1,1/F,,,,LUNG TIN ESTATE,,,LANTAU ISLAND,TAI O,,,,,,,0421212747T20050430
Point,114.025,22.21282,808250,820609,2060908250T20050430,長興樓,離島區,新界,室,201,,2,2樓,,,長貴邨,,,,,,,長洲,長貴路,31,,CHEUNG HING HOUSE,ISLANDS DISTRICT,NT,FLAT,201,,2,2/F,,,,CHEUNG KWAI ESTATE,,,,,,,CHEUNG CHAU,CHEUNG KWAI ROAD,31,,2060908250T20050430
Point,113.93462,22.28009,815711,811301,1130015710T20050430,祿逸樓,離島區,新界,室,101,,1,1樓,,,逸東邨,,,,,,,大嶼山 東涌,逸東街,8,,LUK YAT HSE,ISLANDS DISTRICT,NT,FLAT,101,,1,1/F,,,,YAT TUNG ESTATE,,,,,,,"TUNG CHUNG, LANTAU ISLAND",YAT TUNG STREET,8,,1130015710T20050430
Point,114.02498,22.21302,808272,820607,2060708276T20050430,長旺樓,離島區,新界,室,201,,2,2樓,,,長貴邨,,,,,,,長洲,長貴路,31,,CHEUNG WONG HOUSE,ISLANDS DISTRICT,NT,FLAT,201,,2,2/F,,,,CHEUNG KWAI ESTATE,,,,,,,CHEUNG CHAU,CHEUNG KWAI ROAD,31,,2060708276T20050430
Point,113.93633,22.28264,815993,811478,1147915993T20050430,寶逸樓,離島區,新界,室,101,,1,1樓,座,13,逸東(二)邨,,,,,,,大嶼山 東涌,逸東街,8,,PO YAT HSE,ISLANDS DISTRICT,NT,FLAT,101,,1,1/F,BLK,13,Y,YAT TUNG (2) ESTATE,,,,,,,"TUNG CHUNG, LANTAU ISLAND",YAT TUNG STREET,8,,1147915993T20050430
Point,113.93481,22.28228,815953,811321,1132215955T20050430,翠逸樓,離島區,新界,室,101,,1,1樓,座,14,逸東(二)邨,,,,,,,大嶼山 東涌,逸東街,8,,CHUI YAT HSE,ISLANDS DISTRICT,NT,FLAT,101,,1,1/F,BLK,14,N,YAT TUNG (2) ESTATE,,,,,,,"TUNG CHUNG, LANTAU ISLAND",YAT TUNG STREET,8,,1132215955T20050430
Point,114.02462,22.21233,808195,820570,2057008195T20050430,長盛樓,離島區,新界,室,101,,1,1樓,,,長貴邨,,,,,,,長洲,長貴路,31,,CHEUNG SHING HOUSE,ISLANDS DISTRICT,NT,FLAT,101,,1,1/F,,,,CHEUNG KWAI ESTATE,,,,,,,CHEUNG CHAU,CHEUNG KWAI ROAD,31,,2057008195T20050430
Point,113.86578,22.25282,812705,804200,0420412708T20050430,天貴樓,離島區,新界,室,101,,1,1樓,,,龍田邨,,,大嶼山,大澳,,,,,,,TIN KWAI HSE,ISLANDS DISTRICT,NT,FLAT,101,,1,1/F,,,,LUNG TIN ESTATE,,,LANTAU ISLAND,TAI O,,,,,,,0420412708T20050430
Point,113.93683,22.28021,815724,811530,1152915724T20050430,雍逸樓,離島區,新界,室,101,,1,1樓,,,逸東邨,,,,,,,大嶼山 東涌,逸東街,8,,YUNG YAT HSE,ISLANDS DISTRICT,NT,FLAT,101,,1,1/F,,,,YAT TUNG ESTATE,,,,,,,"TUNG CHUNG, LANTAU ISLAND",YAT TUNG STREET,8,,1152915724T20050430
Point,114.02455,22.21308,808279,820562,2056308279T20050430,長景樓,離島區,新界,室,101,,1,1樓,,,長貴邨,,,,,,,長洲,長貴路,31,,CHEUNG KING HOUSE,ISLANDS DISTRICT,NT,FLAT,101,,1,1/F,,,,CHEUNG KWAI ESTATE,,,,,,,CHEUNG CHAU,CHEUNG KWAI ROAD,31,,2056308279T20050430
Point,114.02587,22.21344,808319,820698,2069708323T20050430,長德樓,離島區,新界,室,101,,1,1樓,,,長貴邨,,,,,,,長洲,長貴路,31,,CHEUNG TAK HOUSE,ISLANDS DISTRICT,NT,FLAT,101,,1,1/F,,,,CHEUNG KWAI ESTATE,,,,,,,CHEUNG CHAU,CHEUNG KWAI ROAD,31,,2069708323T20050430
Point,113.86603,22.25331,812759,804226,0422712759T20050430,天成樓,離島區,新界,室,101,,1,1樓,,,龍田邨,,,大嶼山,大澳,,,,,,,TIN SING HSE,ISLANDS DISTRICT,NT,FLAT,101,,1,1/F,,,,LUNG TIN ESTATE,,,LANTAU ISLAND,TAI O,,,,,,,0422712759T20050430
Point,113.9962,22.26454,813980,817646,1764813980T20050430,銀虹樓,離島區,新界,室,101,,1,1樓,座,4,銀灣邨,,,大嶼山,梅窩,,,,,,,NGAN HUNG HOUSE,ISLANDS DISTRICT,NT,FLAT,101,,1,1/F,BLK,4,Y,NGAN WAN ESTATE,,,LANTAU ISLAND,MUI WO,,,,,,,1764813980T20050430
Point,113.86512,22.2527,812692,804132,0413412692T20050430,天福樓,離島區,新界,室,101,,1,1樓,,,龍田邨,,,大嶼山,大澳,,,,,,,TIN FOOK HSE,ISLANDS DISTRICT,NT,FLAT,101,,1,1/F,,,,LUNG TIN ESTATE,,,LANTAU ISLAND,TAI O,,,,,,,0413412692T20050430
Point,113.93488,22.28314,816049,811329,1132816049T20050430,瑞逸樓,離島區,新界,室,101,,1,1樓,座,16,逸東(二)邨,,,,,,,大嶼山 東涌,逸東街,8,,SUI YAT HSE,ISLANDS DISTRICT,NT,FLAT,101,,1,1/F,BLK,16,Y,YAT TUNG (2) ESTATE,,,,,,,"TUNG CHUNG, LANTAU ISLAND",YAT TUNG STREET,8,,1132816049T20050430
Point,114.02776,22.20205,807057,820892,2089207058T20050430,良澤閣,離島區,新界,室,G12,,,0樓,座,3,雅寧苑,,,,,,,長洲,長洲山頂道西,39,,LEUNG CHAK HSE,ISLANDS DISTRICT,NT,FLAT,G12,,,0/F,BLK,3,Y,NGA NING COURT,,,,,,,CHEUNG CHAU,CHEUNG CHAU PEAK ROAD WEST,39,,2089207058T20050430
Point,114.02484,22.21283,808251,820592,2059208252T20050430,長廣樓,離島區,新界,室,201,,2,2樓,,,長貴邨,,,,,,,長洲,長貴路,31,,CHEUNG KWONG HOUSE,ISLANDS DISTRICT,NT,FLAT,201,,2,2/F,,,,CHEUNG KWAI ESTATE,,,,,,,CHEUNG CHAU,CHEUNG KWAI ROAD,31,,2059208252T20050430
Point,113.99628,22.26494,814025,817655,1764814017T20050430,銀月樓,離島區,新界,室,101,,1,1樓,座,2,銀灣邨,,,大嶼山,梅窩,,,,,,,NGAN YUET HOUSE,ISLANDS DISTRICT,NT,FLAT,101,,1,1/F,BLK,2,Y,NGAN WAN ESTATE,,,LANTAU ISLAND,MUI WO,,,,,,,1764814017T20050430
Point,113.93808,22.2815,815867,811658,1165815865T20050429,美逸樓,離島區,新界,室,101,,1,1樓,座,D,逸東(二)邨,,,,,,,大嶼山 東涌,逸東街,8,,MEI YAT HSE,ISLANDS DISTRICT,NT,FLAT,101,,1,1/F,BLK,D,Y,YAT TUNG (2) ESTATE,,,,,,,"TUNG CHUNG, LANTAU ISLAND",YAT TUNG STREET,8,,1165815865T20050429
Point,113.93615,22.28365,816105,811460,1146016104T20050430,信逸樓,離島區,新界,室,101,,1,1樓,座,19,逸東(二)邨,,,,,,,大嶼山 東涌,逸東街,8,,SHUN YAT HSE,ISLANDS DISTRICT,NT,FLAT,101,,1,1/F,BLK,19,Y,YAT TUNG (2) ESTATE,,,,,,,"TUNG CHUNG, LANTAU ISLAND",YAT TUNG STREET,8,,1146016104T20050430
Point,113.93641,22.28111,815824,811486,1148615823T20050430,善逸樓,離島區,新界,室,101,,1,1樓,,,逸東邨,,,,,,,大嶼山 東涌,逸東街,8,,SIN YAT HSE,ISLANDS DISTRICT,NT,FLAT,101,,1,1/F,,,,YAT TUNG ESTATE,,,,,,,"TUNG CHUNG, LANTAU ISLAND",YAT TUNG STREET,8,,1148615823T20050430
Point,114.02526,22.21371,808348,820636,2063508347T20050430,長緻樓,離島區,新界,室,101,,1,1樓,,,長貴邨,,,,,,,長洲,長貴路,31,,CHEUNG CHI HOUSE,ISLANDS DISTRICT,NT,FLAT,101,,1,1/F,,,,CHEUNG KWAI ESTATE,,,,,,,CHEUNG CHAU,CHEUNG KWAI ROAD,31,,2063508347T20050430
Point,114.02433,22.21228,808190,820539,2053908190T20050430,長豐樓,離島區,新界,室,101,,1,1樓,,,長貴邨,,,,,,,長洲,長貴路,31,,CHEUNG FUNG HOUSE,ISLANDS DISTRICT,NT,FLAT,101,,1,1/F,,,,CHEUNG KWAI ESTATE,,,,,,,CHEUNG CHAU,CHEUNG KWAI ROAD,31,,2053908190T20050430
Point,114.02529,22.21392,808372,820638,2064008372T20050430,長歡樓,離島區,新界,室,101,,1,1樓,,,長貴邨,,,,,,,長洲,長貴路,31,,CHEUNG FOON HOUSE,ISLANDS DISTRICT,NT,FLAT,101,,1,1/F,,,,CHEUNG KWAI ESTATE,,,,,,,CHEUNG CHAU,CHEUNG KWAI ROAD,31,,2064008372T20050430
Point,113.86552,22.25304,812729,804174,0417512730T20050430,天富樓,離島區,新界,室,103,,1,1樓,,,龍田邨,,,大嶼山,大澳,,,,,,,TIN FU HSE,ISLANDS DISTRICT,NT,FLAT,103,,1,1/F,,,,LUNG TIN ESTATE,,,LANTAU ISLAND,TAI O,,,,,,,0417512730T20050430
Point,113.86587,22.25267,812687,804210,0421412690T20050430,天喜樓,離島區,新界,室,101,,1,1樓,,,龍田邨,,,大嶼山,大澳,,,,,,,TIN HEI HSE,ISLANDS DISTRICT,NT,FLAT,101,,1,1/F,,,,LUNG TIN ESTATE,,,LANTAU ISLAND,TAI O,,,,,,,0421412690T20050430
Point,113.93731,22.28234,815960,811579,1158215956T20050429,居逸樓,離島區,新界,室,101,,1,1樓,座,F&G,逸東(二)邨,,,,,,,大嶼山 東涌,逸東街,8,,KUI YAT HSE,ISLANDS DISTRICT,NT,FLAT,101,,1,1/F,BLK,F&G,Y,YAT TUNG (2) ESTATE,,,,,,,"TUNG CHUNG, LANTAU ISLAND",YAT TUNG STREET,8,,1158215956T20050429
Point,113.93481,22.28228,815953,811321,1132215955T20050430,翠逸樓,離島區,新界,室,101,,1,1樓,座,14,逸東(二)邨,,,,,,,大嶼山 東涌,逸東街,8,,CHUI YAT HSE,ISLANDS DISTRICT,NT,FLAT,101,,1,1/F,BLK,14,Y,YAT TUNG (2) ESTATE,,,,,,,"TUNG CHUNG, LANTAU ISLAND",YAT TUNG STREET,8,,1132215955T20050430
Point,114.02571,22.21384,808363,820682,2068308363T20050430,長發樓,離島區,新界,室,101,,1,1樓,,,長貴邨,,,,,,,長洲,長貴路,31,,CHEUNG FAT HOUSE,ISLANDS DISTRICT,NT,FLAT,101,,1,1/F,,,,CHEUNG KWAI ESTATE,,,,,,,CHEUNG CHAU,CHEUNG KWAI ROAD,31,,2068308363T20050430
Point,114.02516,22.21333,808306,820625,2062508308T20050430,長樂樓,離島區,新界,室,101,,1,1樓,,,長貴邨,,,,,,,長洲,長貴路,31,,CHEUNG LOK HOUSE,ISLANDS DISTRICT,NT,FLAT,101,,1,1/F,,,,CHEUNG KWAI ESTATE,,,,,,,CHEUNG CHAU,CHEUNG KWAI ROAD,31,,2062508308T20050430
Point,113.93644,22.28333,816069,811490,1148916070T20050430,謙逸樓,離島區,新界,室,101,,1,1樓,座,18,逸東(二)邨,,,,,,,大嶼山 東涌,逸東街,8,,HIM YAT HSE,ISLANDS DISTRICT,NT,FLAT,101,,1,1/F,BLK,18,Y,YAT TUNG (2) ESTATE,,,,,,,"TUNG CHUNG, LANTAU ISLAND",YAT TUNG STREET,8,,1148916070T20050430
Point,113.93661,22.2817,815890,811507,1150615890T20050430,勤逸樓,離島區,新界,室,101,,1,1樓,座,11,逸東(二)邨,,,,,,,大嶼山 東涌,逸東街,8,,KAN YAT HSE,ISLANDS DISTRICT,NT,FLAT,101,,1,1/F,BLK,11,Y,YAT TUNG (2) ESTATE,,,,,,,"TUNG CHUNG, LANTAU ISLAND",YAT TUNG STREET,8,,1150615890T20050430
Point,113.93564,22.28047,815753,811407,1140615753T20050430,享逸樓,離島區,新界,室,101,,1,1樓,,,逸東邨,,,,,,,大嶼山 東涌,逸東街,8,,HEUNG YAT HSE,ISLANDS DISTRICT,NT,FLAT,101,,1,1/F,,,,YAT TUNG ESTATE,,,,,,,"TUNG CHUNG, LANTAU ISLAND",YAT TUNG STREET,8,,1140615753T20050430
Point,113.99698,22.26485,814014,817726,1771014012T20090717,銀日樓,離島區,新界,室,103,,1,1樓,座,1,銀灣邨,,,大嶼山,梅窩,,,,,,,NGAN YAT HOUSE,ISLANDS DISTRICT,NT,FLAT,103,,1,1/F,BLK,1,Y,NGAN WAN ESTATE,,,LANTAU ISLAND,MUI WO,,,,,,,1772614012T20090717
Point,113.86527,22.25278,812700,804149,0414612704T20050430,天德樓,離島區,新界,室,101,,1,1樓,,,龍田邨,,,大嶼山,大澳,,,,,,,TIN TAK HSE,ISLANDS DISTRICT,NT,FLAT,101,,1,1/F,,,,LUNG TIN ESTATE,,,LANTAU ISLAND,TAI O,,,,,,,0414612704T20050430
Point,114.02554,22.21361,808337,820664,2066408336T20050430,長雅樓,離島區,新界,室,101,,1,1樓,,,長貴邨,,,,,,,長洲,長貴路,31,,CHEUNG NGA HOUSE,ISLANDS DISTRICT,NT,FLAT,101,,1,1/F,,,,CHEUNG KWAI ESTATE,,,,,,,CHEUNG CHAU,CHEUNG KWAI ROAD,31,,2066408336T20050430
Point,114.02477,22.21301,808271,820585,2058608269T20050430,長富樓,離島區,新界,室,201,,2,2樓,,,長貴邨,,,,,,,長洲,長貴路,31,,CHEUNG FU HOUSE,ISLANDS DISTRICT,NT,FLAT,201,,2,2/F,,,,CHEUNG KWAI ESTATE,,,,,,,CHEUNG CHAU,CHEUNG KWAI ROAD,31,,2058608269T20050430
Point,114.03715,22.28705,816468,821869,2187016469T20050430,金坪樓,離島區,新界,室,10,,,0樓,,,金坪邨,,,,,,,坪洲,坪利路,21,,KAM PENG HSE,ISLANDS DISTRICT,NT,FLAT,10,,,0/F,,,,KAM PENG ESTATE,,,,,,,PENG CHAU,PENG LEI ROAD,21,,2187016469T20050430
Point,113.93775,22.28186,815907,811625,1162115912T20050429,滿逸樓,離島區,新界,室,101,,1,1樓,座,E,逸東(二)邨,,,,,,,大嶼山 東涌,逸東街,8,,MUN YAT HSE,ISLANDS DISTRICT,NT,FLAT,101,,1,1/F,BLK,E,Y,YAT TUNG (2) ESTATE,,,,,,,"TUNG CHUNG, LANTAU ISLAND",YAT TUNG STREET,8,,1162115912T20050429
Point,113.93674,22.283,816033,811521,1154116036T20050430,德逸樓,離島區,新界,室,101,,1,1樓,座,17,逸東(二)邨,,,,,,,大嶼山 東涌,逸東街,8,,TAK YAT HSE,ISLANDS DISTRICT,NT,FLAT,101,,1,1/F,BLK,17,Y,YAT TUNG (2) ESTATE,,,,,,,"TUNG CHUNG, LANTAU ISLAND",YAT TUNG STREET,8,,1152116034T20050430
Point,113.93466,22.2806,815768,811306,1130515768T20050430,迎逸樓,離島區,新界,室,101,,1,1樓,,,逸東邨,,,,,,,大嶼山 東涌,逸東街,8,,YING YAT HSE,ISLANDS DISTRICT,NT,FLAT,101,,1,1/F,,,,YAT TUNG ESTATE,,,,,,,"TUNG CHUNG, LANTAU ISLAND",YAT TUNG STREET,8,,1130515768T20050430
Point,114.02438,22.21258,808223,820544,2054508224T20050430,長順樓,離島區,新界,室,101,,1,1樓,,,長貴邨,,,,,,,長洲,長貴路,31,,CHEUNG SHUN HOUSE,ISLANDS DISTRICT,NT,FLAT,101,,1,1/F,,,,CHEUNG KWAI ESTATE,,,,,,,CHEUNG CHAU,CHEUNG KWAI ROAD,31,,2054508224T20050430
Point,114.02598,22.21306,808277,820710,2071008277T20050430,長華樓,離島區,新界,室,101,,1,1樓,,,長貴邨,,,,,,,長洲,長貴路,31,,CHEUNG WAH HOUSE,ISLANDS DISTRICT,NT,FLAT,101,,1,1/F,,,,CHEUNG KWAI ESTATE,,,,,,,CHEUNG CHAU,CHEUNG KWAI ROAD,31,,2071008277T20050430
Point,113.94197,22.28784,816568,812060,1206016568T20050430,東馬樓,離島區,新界,室,101,,1,1樓,,,富東邨,,,,,,,大嶼山 東涌,富東街,6,,TUNG MA HOUSE,ISLANDS DISTRICT,NT,FLAT,101,,1,1/F,,,,FU TUNG ESTATE,,,,,,,"TUNG CHUNG, LANTAU ISLAND",FU TUNG STREET,6,,1206016568T20050430
Point,114.02545,22.21283,808250,820655,2065208256T20050430,長益樓,離島區,新界,室,101,,1,1樓,,,長貴邨,,,,,,,長洲,長貴路,31,,CHEUNG YICK HOUSE,ISLANDS DISTRICT,NT,FLAT,101,,1,1/F,,,,CHEUNG KWAI ESTATE,,,,,,,CHEUNG CHAU,CHEUNG KWAI ROAD,31,,2065208256T20050430
Point,114.02686,22.20338,807204,820800,2078707205T20050430,豪澤閣,離島區,新界,室,G06,,,0樓,座,1,雅寧苑,,,,,,,長洲,長洲山頂道西,8,,HO CHAK HSE,ISLANDS DISTRICT,NT,FLAT,G06,,,0/F,BLK,1,Y,NGA NING COURT,,,,,,,CHEUNG CHAU,CHEUNG CHAU PEAK ROAD WEST,8,,2078707205T20050430
Point,113.93458,22.2797,815667,811298,1129815668T20050430,福逸樓,離島區,新界,室,101,,1,1樓,,,逸東邨,,,,,,,大嶼山 東涌,逸東街,8,,FUK YAT HSE,ISLANDS DISTRICT,NT,FLAT,101,,1,1/F,,,,YAT TUNG ESTATE,,,,,,,"TUNG CHUNG, LANTAU ISLAND",YAT TUNG STREET,8,,1129815668T20050430
Point,113.94186,22.28728,816506,812049,1204916506T20050430,東埔樓,離島區,新界,室,201,,2,2樓,,,富東邨,,,,,,,大嶼山 東涌,富東街,6,,TUNG PO HOUSE,ISLANDS DISTRICT,NT,FLAT,201,,2,2/F,,,,FU TUNG ESTATE,,,,,,,"TUNG CHUNG, LANTAU ISLAND",FU TUNG STREET,6,,1204916506T20050430
Point,113.9379,22.28066,815774,811640,1164015773T20050430,康逸樓,離島區,新界,室,101,,1,1樓,,,逸東邨,,,,,,,大嶼山 東涌,逸東街,8,,HONG YAT HSE,ISLANDS DISTRICT,NT,FLAT,101,,1,1/F,,,,YAT TUNG ESTATE,,,,,,,"TUNG CHUNG, LANTAU ISLAND",YAT TUNG STREET,8,,1164015773T20050430
Point,113.93541,22.27981,815680,811384,1138315679T20050430,舟逸樓,離島區,新界,室,101,,1,1樓,,,逸東邨,,,,,,,大嶼山 東涌,逸東街,8,,CHAU YAT HSE,ISLANDS DISTRICT,NT,FLAT,101,,1,1/F,,,,YAT TUNG ESTATE,,,,,,,"TUNG CHUNG, LANTAU ISLAND",YAT TUNG STREET,8,,1138315679T20050430
Point,114.02481,22.21268,808235,820589,2059108235T20050430,長裕樓,離島區,新界,室,101,,1,1樓,,,長貴邨,,,,,,,長洲,長貴路,31,,CHEUNG YU HOUSE,ISLANDS DISTRICT,NT,FLAT,101,,1,1/F,,,,CHEUNG KWAI ESTATE,,,,,,,CHEUNG CHAU,CHEUNG KWAI ROAD,31,,2059108235T20050430
Point,113.93624,22.27999,815700,811468,1146815700T20050430,平逸樓,離島區,新界,室,101,,1,1樓,,,逸東邨,,,,,,,大嶼山 東涌,逸東街,8,,PING YAT HSE,ISLANDS DISTRICT,NT,FLAT,101,,1,1/F,,,,YAT TUNG ESTATE,,,,,,,"TUNG CHUNG, LANTAU ISLAND",YAT TUNG STREET,8,,1146815700T20050430
Point,113.93484,22.28271,816001,811325,1132516001T20050430,悅逸樓,離島區,新界,室,101,,1,1樓,座,15,逸東(二)邨,,,,,,,大嶼山 東涌,逸東街,8,,YUET YAT HSE,ISLANDS DISTRICT,NT,FLAT,101,,1,1/F,BLK,15,Y,YAT TUNG (2) ESTATE,,,,,,,"TUNG CHUNG, LANTAU ISLAND",YAT TUNG STREET,8,,1132516001T20050430
Point,113.93664,22.28214,815937,811510,1151015937T20050430,傑逸樓,離島區,新界,室,101,,1,1樓,座,12,逸東(二)邨,,,,,,,大嶼山 東涌,逸東街,8,,KIT YAT HSE,ISLANDS DISTRICT,NT,FLAT,101,,1,1/F,BLK,12,Y,YAT TUNG (2) ESTATE,,,,,,,"TUNG CHUNG, LANTAU ISLAND",YAT TUNG STREET,8,,1151015937T20050430
Point,113.86695,22.25281,812702,804321,0429912693T20050430,天寧樓,離島區,新界,室,10,,,G樓,,,龍田邨,,,,,,,,,,,TIN NING HSE,ISLANDS DISTRICT,NT,FLAT,10,,,G/F,,,,LUNG TIN ESTATE,,,,,,,,,,,0429912693T20050430
Point,113.93469,22.281,815811,811309,1130915811T20050430,漁逸樓,離島區,新界,室,101,,1,1樓,,,逸東邨,,,,,,,大嶼山 東涌,逸東街,8,,YU YAT HSE,ISLANDS DISTRICT,NT,FLAT,101,,1,1/F,,,,YAT TUNG ESTATE,,,,,,,"TUNG CHUNG, LANTAU ISLAND",YAT TUNG STREET,8,,1130915811T20050430
Point,114.02577,22.21275,808243,820688,2068908243T20050430,長榮樓,離島區,新界,室,101,,1,1樓,,,長貴邨,,,,,,,長洲,長貴路,31,,CHEUNG WING HOUSE,ISLANDS DISTRICT,NT,FLAT,101,,1,1/F,,,,CHEUNG KWAI ESTATE,,,,,,,CHEUNG CHAU,CHEUNG KWAI ROAD,31,,2068908243T20050430
Point,113.99725,22.26531,814066,817754,1774714060T20050430,銀星樓,離島區,新界,室,101,,1,1樓,座,3,銀灣邨,,,大嶼山,梅窩,,,,,,,NGAN SING HOUSE,ISLANDS DISTRICT,NT,FLAT,101,,1,1/F,BLK,3,Y,NGAN WAN ESTATE,,,LANTAU ISLAND,MUI WO,,,,,,,1774714060T20050430
Point,113.93737,22.28044,815749,811585,1158515748T20050430,清逸樓,離島區,新界,室,101,,1,1樓,,,逸東邨,,,,,,,大嶼山 東涌,逸東街,8,,CHING YAT HSE,ISLANDS DISTRICT,NT,FLAT,101,,1,1/F,,,,YAT TUNG ESTATE,,,,,,,"TUNG CHUNG, LANTAU ISLAND",YAT TUNG STREET,8,,1158515748T20050430
Point,113.93583,22.2799,815690,811426,1142615690T20050430,太逸樓,離島區,新界,室,101,,1,1樓,,,逸東邨,,,,,,,大嶼山 東涌,逸東街,8,,TAI YAT HSE,ISLANDS DISTRICT,NT,FLAT,101,,1,1/F,,,,YAT TUNG ESTATE,,,,,,,"TUNG CHUNG, LANTAU ISLAND",YAT TUNG STREET,8,,1142615690T20050430
Point,113.9415,22.28681,816454,812012,1201116454T20050430,東盛樓,離島區,新界,室,301,,3,3樓,,,富東邨,,,,,,,大嶼山 東涌,富東街,6,,TUNG SHING HOUSE,ISLANDS DISTRICT,NT,FLAT,301,,3,3/F,,,,FU TUNG ESTATE,,,,,,,"TUNG CHUNG, LANTAU ISLAND",FU TUNG STREET,6,,1201116454T20050430
Point,114.02722,22.20265,807123,820837,2082507121T20050430,峻澤閣,離島區,新界,室,G08,,,0樓,座,2,雅寧苑,,,,,,,長洲,長洲山頂道西,6,,CHUN CHAK HSE,ISLANDS DISTRICT,NT,FLAT,G08,,,0/F,BLK,2,Y,NGA NING COURT,,,,,,,CHEUNG CHAU,CHEUNG CHAU PEAK ROAD WEST,6,,2082507121T20050430
Point,113.93616,22.28079,815789,811460,1146115789T20050430,至逸樓,離島區,新界,室,101,,1,1樓,,,逸東邨,,,,,,,大嶼山 東涌,逸東街,8,,CHI YAT HSE,ISLANDS DISTRICT,NT,FLAT,101,,1,1/F,,,,YAT TUNG ESTATE,,,,,,,"TUNG CHUNG, LANTAU ISLAND",YAT TUNG STREET,8,,1146115789T20050430
Point,113.93297,22.27778,815456,811131,1112615456T20170209,滿和樓,離島區,新界,室,101,,1,1樓,座,1,滿東邨,,,,,,,大嶼山 東涌,松滿路,7,,MUN WO HOUSE,ISLANDS DISTRICT,NT,FLAT,101,,1,1/F,BLK,1,Y,MUN TUNG ESTATE,,,,,,,"TUNG CHUNG, LANTAU ISLAND",CHUNG MUN ROAD,7,,1112615456T20170209
Point,113.95347,22.29573,817440,813247,1323817431T20151106,迎喜樓,離島區,新界,室,201,,2,2樓,座,1,迎東邨,,,,,,,大嶼山,迎東路,12,,YING HEI HOUSE,ISLANDS DISTRICT,NT,FLAT,201,,2,2/F,BLK,1,Y,YING TUNG ESTATE,,,,,,,LANTAU ISLAND,YING TUNG ROAD,12,,1323817431T20151106
Point,113.95332,22.29625,817498,813231,1323217500T20151106,迎福樓,離島區,新界,室,301,,3,3樓,座,2,迎東邨,,,,,,,大嶼山,迎東路,12,,YING FOOK HOUSE,ISLANDS DISTRICT,NT,FLAT,301,,3,3/F,BLK,2,Y,YING TUNG ESTATE,,,,,,,LANTAU ISLAND,YING TUNG ROAD,12,,1323217500T20151106
Point,113.95402,22.29672,817550,813304,1330317545T20151106,迎趣樓,離島區,新界,室,201,,2,2樓,座,3,迎東邨,,,,,,,大嶼山,迎東路,12,,YING CHUI HOUSE,ISLANDS DISTRICT,NT,FLAT,201,,2,2/F,BLK,3,Y,YING TUNG ESTATE,,,,,,,LANTAU ISLAND,YING TUNG ROAD,12,,1330317545T20151106
Point,113.95394,22.29577,817444,813295,1331217470T20151106,迎悅樓,離島區,新界,室,201,,2,2樓,座,4,迎東邨,,,,,,,大嶼山,迎東路,12,,YING YUET HOUSE,ISLANDS DISTRICT,NT,FLAT,201,,2,2/F,BLK,4,Y,YING TUNG ESTATE,,,,,,,LANTAU ISLAND,YING TUNG ROAD,12,,1329617445T20171023
Point,113.93295,22.27683,815351,811129,1113515327T20190125,滿順樓,離島區,新界,室,101,,1,1樓,座,2,滿東邨,,,,,,,大嶼山 東涌,松滿路,7,,MUN SHUN HOUSE,ISLANDS DISTRICT,NT,FLAT,101,,1,1/F,BLK,2,Y,MUN TUNG ESTATE,,,,,,,"TUNG CHUNG, LANTAU ISLAND",CHUNG MUN ROAD,7,,1113515327T20190125
Point,113.93266,22.27612,815272,811099,1111815282T20170209,滿康樓,離島區,新界,室,101,,1,1樓,座,3,滿東邨,,,,,,,大嶼山 東涌,松滿路,7,,MUN HONG HOUSE,ISLANDS DISTRICT,NT,FLAT,101,,1,1/F,BLK,3,Y,MUN TUNG ESTATE,,,,,,,"TUNG CHUNG, LANTAU ISLAND",CHUNG MUN ROAD,7,,1111815282T20170209
Point,113.93184,22.27639,815302,811014,1102615300T20170209,滿泰樓,離島區,新界,室,101,,1,1樓,座,4,滿東邨,,,,,,,大嶼山 東涌,松滿路,7,,MUN TAI HOUSE,ISLANDS DISTRICT,NT,FLAT,101,,1,1/F,BLK,4,Y,MUN TUNG ESTATE,,,,,,,"TUNG CHUNG, LANTAU ISLAND",CHUNG MUN ROAD,7,,1102615300T20170209
Point,114.18135,22.31999,820109,836729,3672520115T20050430,,九龍城區,九龍,,,,,,,,常樂邨,,,,,,,,常盛街,33,,,KOWLOON CITY DISTRICT,KLN,,,,,,,,,SHEUNG LOK ESTATE,,,,,,,,SHEUNG SHING STREET,33,,3672520115T20050430
Point,114.18909,22.30801,818783,837527,3752018776T20110715,,九龍城區,九龍,室,101,,1,1樓,,,紅磡邨第二期,,,,,,,,大環道,28,,,KOWLOON CITY DISTRICT,KLN,FLAT,101,,1,1/F,,,,HUNG HOM ESTATE PHASE 2,,,,,,,,TAI WAN ROAD,28,,3752018776T20110715
Point,114.18909,22.30801,818783,837527,3752018776T20110715,,九龍城區,九龍,室,101,,1,1樓,,,紅磡邨第二期,,,,,,,,戴亞街,9,,,KOWLOON CITY DISTRICT,KLN,FLAT,101,,1,1/F,,,,HUNG HOM ESTATE PHASE 2,,,,,,,,DYER AVENUE,9,,3752018776T20110715
Point,114.17834,22.31343,819383,836419,3642319383T20050430,昭民樓,九龍城區,九龍,室,201,,2,2樓,,,愛民邨,,,,,,,,忠孝街,60,,CHIU MAN HOUSE,KOWLOON CITY DISTRICT,KLN,FLAT,201,,2,2/F,,,,OI MAN ESTATE,,,,,,,,CHUNG HAU STREET,60,,3642319383T20050430
Point,114.17834,22.31287,819321,836419,3642519320T20050430,頌民樓,九龍城區,九龍,室,201,,2,2樓,,,愛民邨,,,,,,,,忠孝街,60,,CHUNG MAN HOUSE,KOWLOON CITY DISTRICT,KLN,FLAT,201,,2,2/F,,,,OI MAN ESTATE,,,,,,,,CHUNG HAU STREET,60,,3642519320T20050430
Point,114.17733,22.31287,819321,836314,3631419321T20050430,敦民樓,九龍城區,九龍,室,209,,2,2樓,,,愛民邨,,,,,,,,忠孝街,60,,TUN MAN HOUSE,KOWLOON CITY DISTRICT,KLN,FLAT,209,,2,2/F,,,,OI MAN ESTATE,,,,,,,,CHUNG HAU STREET,60,,3631419321T20050430
Point,114.18692,22.32243,820380,837303,3730220377T20050430,水仙樓,九龍城區,九龍,室,301,,3,3樓,,,馬頭圍邨,,,,,,,,盛德街,9,,NARCISSUS HOUSE,KOWLOON CITY DISTRICT,KLN,FLAT,301,,3,3/F,,,,MA TAU WAI ESTATE,,,,,,,,SHING TAK STREET,9,,3730220377T20050430
Point,114.17767,22.31201,819226,836350,3635019224T20050430,德民樓,九龍城區,九龍,室,209,,2,2樓,,,愛民邨,,,,,,,,忠孝街,60,,TAK MAN HOUSE,KOWLOON CITY DISTRICT,KLN,FLAT,209,,2,2/F,,,,OI MAN ESTATE,,,,,,,,CHUNG HAU STREET,60,,3635019224T20050430
Point,114.18719,22.32383,820534,837331,3734320552T20050430,夜合樓,九龍城區,九龍,室,119,,1,1樓,,,馬頭圍邨,,,,,,,,盛德街,9,,MAGNOLIA HOUSE,KOWLOON CITY DISTRICT,KLN,FLAT,119,,1,1/F,,,,MA TAU WAI ESTATE,,,,,,,,SHING TAK STREET,9,,3734320552T20050430
Point,114.17938,22.31145,819164,836527,3654519164T20050430,保民樓,九龍城區,九龍,室,501,,5,5樓,,,愛民邨,,,,,,,,忠孝街,60,,PO MAN HOUSE,KOWLOON CITY DISTRICT,KLN,FLAT,501,,5,5/F,,,,OI MAN ESTATE,,,,,,,,CHUNG HAU STREET,60,,3654519164T20050430
Point,114.1774,22.31384,819428,836323,3632219427T20050430,衛民樓,九龍城區,九龍,室,209,,2,2樓,,,愛民邨,,,,,,,,忠孝街,60,,WAI MAN HOUSE,KOWLOON CITY DISTRICT,KLN,FLAT,209,,2,2/F,,,,OI MAN ESTATE,,,,,,,,CHUNG HAU STREET,60,,3632219427T20050430
Point,114.18307,22.31496,819553,836907,3690219553T20050430,適文樓,九龍城區,九龍,室,101,,1,1樓,,,何文田邨,,,,,,,,佛光街,68,,SIK MAN HOUSE,KOWLOON CITY DISTRICT,KLN,FLAT,101,,1,1/F,,,,HO MAN TIN ESTATE,,,,,,,,FAT KWONG STREET,68,,3690219553T20050430
Point,114.17898,22.31058,819068,836485,3649819067T20050430,信民樓,九龍城區,九龍,室,209,,2,2樓,,,愛民邨,,,,,,,,忠孝街,60,,SHUN MAN HOUSE,KOWLOON CITY DISTRICT,KLN,FLAT,209,,2,2/F,,,,OI MAN ESTATE,,,,,,,,CHUNG HAU STREET,60,,3649819067T20050430
Point,114.17938,22.31201,819225,836526,3652919226T20050430,禮民樓,九龍城區,九龍,室,501,,5,5樓,,,愛民邨,,,,,,,,忠孝街,60,,LAI MAN HOUSE,KOWLOON CITY DISTRICT,KLN,FLAT,501,,5,5/F,,,,OI MAN ESTATE,,,,,,,,CHUNG HAU STREET,60,,3652919226T20050430
Point,114.18196,22.31477,819531,836792,3678319529T20050430,欣文樓,九龍城區,九龍,室,601,,6,6樓,,,何文田邨,,,,,,,,佛光街,68,,YAN MAN HOUSE,KOWLOON CITY DISTRICT,KLN,FLAT,601,,6,6/F,,,,HO MAN TIN ESTATE,,,,,,,,FAT KWONG STREET,68,,3678319529T20050430
Point,114.17883,22.31315,819352,836470,3646919347T20050430,康民樓,九龍城區,九龍,室,202,,2,2樓,,,愛民邨,,,,,,,,忠孝街,60,,HONG MAN HOUSE,KOWLOON CITY DISTRICT,KLN,FLAT,202,,2,2/F,,,,OI MAN ESTATE,,,,,,,,CHUNG HAU STREET,60,,3646919347T20050430
Point,114.18181,22.31567,819631,836777,3678419601T20050430,雅文樓,九龍城區,九龍,室,601,,6,6樓,,,何文田邨,,,,,,,,佛光街,68,,NGA MAN HOUSE,KOWLOON CITY DISTRICT,KLN,FLAT,601,,6,6/F,,,,HO MAN TIN ESTATE,,,,,,,,FAT KWONG STREET,68,,3678419601T20050430
Point,114.17832,22.3113,819147,836417,3643219146T20050430,新民樓,九龍城區,九龍,室,209,,2,2樓,,,愛民邨,,,,,,,,忠孝街,60,,SUN MAN HOUSE,KOWLOON CITY DISTRICT,KLN,FLAT,209,,2,2/F,,,,OI MAN ESTATE,,,,,,,,CHUNG HAU STREET,60,,3643219146T20050430
Point,114.18747,22.32254,820392,837360,3735120371T20050430,洋葵樓,九龍城區,九龍,室,201,,2,2樓,,,馬頭圍邨,,,,,,,,盛德街,9,,GERANIUM HOUSE,KOWLOON CITY DISTRICT,KLN,FLAT,201,,2,2/F,,,,MA TAU WAI ESTATE,,,,,,,,SHING TAK STREET,9,,3735120371T20050430
Point,114.17987,22.31206,819231,836577,3657819249T20050430,嘉民樓,九龍城區,九龍,室,701,,7,7樓,,,愛民邨,,,,,,,,忠孝街,60,,KAR MAN HOUSE,KOWLOON CITY DISTRICT,KLN,FLAT,701,,7,7/F,,,,OI MAN ESTATE,,,,,,,,CHUNG HAU STREET,60,,3657819249T20050430
Point,114.18271,22.31572,819637,836869,3686919637T20050430,逸文樓,九龍城區,九龍,室,101,,1,1樓,,,何文田邨,,,,,,,,佛光街,68,,YAT MAN HOUSE,KOWLOON CITY DISTRICT,KLN,FLAT,101,,1,1/F,,,,HO MAN TIN ESTATE,,,,,,,,FAT KWONG STREET,68,,3686919637T20050430
Point,114.18246,22.31671,819746,836844,3684419747T20050430,采文樓,九龍城區,九龍,室,201,,2,2樓,,,何文田邨,,,,,,,,佛光街,68,,CHOI MAN HOUSE,KOWLOON CITY DISTRICT,KLN,FLAT,201,,2,2/F,,,,HO MAN TIN ESTATE,,,,,,,,FAT KWONG STREET,68,,3684419747T20050430
Point,114.18664,22.32396,820549,837274,3726820535T20050430,芙蓉樓,九龍城區,九龍,室,201,,2,2樓,,,馬頭圍邨,,,,,,,,盛德街,9,,HIBISCUS HOUSE,KOWLOON CITY DISTRICT,KLN,FLAT,201,,2,2/F,,,,MA TAU WAI ESTATE,,,,,,,,SHING TAK STREET,9,,3726820535T20050430
Point,114.18868,22.30719,818692,837484,3751718693T20050430,紅昇樓,九龍城區,九龍,室,101,,1,1樓,,,紅磡邨,,,,,,,,戴亞街,9,,HUNG SING HOUSE,KOWLOON CITY DISTRICT,KLN,FLAT,101,,1,1/F,,,,HUNG HOM ESTATE,,,,,,,,DYER AVENUE,9,,3751718693T20050430
Point,114.18221,22.31537,819598,836818,3681519615T20050430,恬文樓,九龍城區,九龍,室,101,,1,1樓,,,何文田邨,,,,,,,,佛光街,68,,TIM MAN HOUSE,KOWLOON CITY DISTRICT,KLN,FLAT,101,,1,1/F,,,,HO MAN TIN ESTATE,,,,,,,,FAT KWONG STREET,68,,3681519615T20050430
Point,114.18242,22.31497,819553,836839,3683619541T20050430,靜文樓,九龍城區,九龍,室,101,,1,1樓,,,何文田邨,,,,,,,,佛光街,68,,CHING MAN HOUSE,KOWLOON CITY DISTRICT,KLN,FLAT,101,,1,1/F,,,,HO MAN TIN ESTATE,,,,,,,,FAT KWONG STREET,68,,3683619541T20050430
Point,114.17938,22.31257,819288,836527,3652719288T20050430,建民樓,九龍城區,九龍,室,501,,5,5樓,,,愛民邨,,,,,,,,忠孝街,60,,KIN MAN HOUSE,KOWLOON CITY DISTRICT,KLN,FLAT,501,,5,5/F,,,,OI MAN ESTATE,,,,,,,,CHUNG HAU STREET,60,,3652719288T20050430
Point,114.18104,22.3182,819911,836697,3669719911T20050430,景文樓,九龍城區,九龍,室,101,,1,1樓,,,何文田邨,,,,,,,,常盛街,18,,KING MAN HOUSE,KOWLOON CITY DISTRICT,KLN,FLAT,101,,1,1/F,,,,HO MAN TIN ESTATE,,,,,,,,SHEUNG SHING STREET,18,,3669719911T20050430
Point,114.18909,22.30754,818731,837527,3752218726T20050430,紅暉樓,九龍城區,九龍,室,101,,1,1樓,,,紅磡邨,,,,,,,,戴亞街,9,,HUNG FAI HOUSE,KOWLOON CITY DISTRICT,KLN,FLAT,101,,1,1/F,,,,HUNG HOM ESTATE,,,,,,,,DYER AVENUE,9,,3752218726T20050430
Point,114.18135,22.31999,820109,836729,3675620124T20050430,常樂樓,九龍城區,九龍,室,101,,1,1樓,,,常樂邨,,,,,,,,常盛街,33,,SHEUNG LOK HOUSE,KOWLOON CITY DISTRICT,KLN,FLAT,101,,1,1/F,,,,SHEUNG LOK ESTATE,,,,,,,,SHEUNG SHING STREET,33,,3672520115T20050430
Point,114.18258,22.31624,819694,836856,3685619695T20050430,綺文樓,九龍城區,九龍,室,201,,2,2樓,,,何文田邨,,,,,,,,佛光街,68,,YEE MAN HOUSE,KOWLOON CITY DISTRICT,KLN,FLAT,201,,2,2/F,,,,HO MAN TIN ESTATE,,,,,,,,FAT KWONG STREET,68,,3685619695T20050430
Point,114.18703,22.32329,820475,837314,3731520477T20050430,玫瑰樓,九龍城區,九龍,室,207,,2,2樓,,,馬頭圍邨,,,,,,,,盛德街,9,,ROSE HOUSE,KOWLOON CITY DISTRICT,KLN,FLAT,207,,2,2/F,,,,MA TAU WAI ESTATE,,,,,,,,SHING TAK STREET,9,,3731520477T20050430
Point,114.18909,22.30801,818783,837527,3757718779P20110504,紅日樓,九龍城區,九龍,室,101,,1,1樓,座,1,紅磡邨,,,,,,,,大環道,28,,HUNG YAT HOUSE,KOWLOON CITY DISTRICT,KLN,FLAT,101,,1,1/F,BLK,1,Y,HUNG HOM ESTATE,,,,,,,,TAI WAN ROAD,28,,3752018776T20110715
Point,114.18942,22.30827,818812,837560,3757718779P20110504,紅昕樓,九龍城區,九龍,室,101,,1,1樓,座,2,紅磡邨,,,,,,,,大環道,28,,HUNG YAN HOUSE,KOWLOON CITY DISTRICT,KLN,FLAT,101,,1,1/F,BLK,2,Y,HUNG HOM ESTATE,,,,,,,,TAI WAN ROAD,28,,3756118813T20110715
Point,114.18973,22.3086,818848,837593,3759218849P20110715,紅曜樓,九龍城區,九龍,室,101,,1,1樓,座,3,紅磡邨,,,,,,,,大環道,28,,HUNG YIU HOUSE,KOWLOON CITY DISTRICT,KLN,FLAT,101,,1,1/F,BLK,3,Y,HUNG HOM ESTATE,,,,,,,,TAI WAN ROAD,28,,3759318848T20110715
Point,114.20318,22.33352,821608,838978,3897921608T20120423,賞晴樓,九龍城區,九龍,室,101,,1,1樓,座,4,啓晴邨,,,,,,,,沐虹街,12,,SHEUNG CHING HOUSE,KOWLOON CITY DISTRICT,KLN,FLAT,101,,1,1/F,BLK,4,Y,KAI CHING ESTATE,,,,,,,,MUK HUNG STREET,12,,3897921608T20120423
Point,114.20303,22.33069,821295,838963,3896321295T20131227,德瑜樓,九龍城區,九龍,室,101,,1,1樓,座,1,德朗邨,,,,,,,,承啟道,28,,TAK YU HOUSE,KOWLOON CITY DISTRICT,KLN,FLAT,101,,1,1/F,BLK,1,Y,TAK LONG ESTATE,,,,,,,,SHING KAI ROAD,28,,3896321295T20131227
Point,114.20364,22.33069,821294,839026,3903321291T20131227,德珮樓,九龍城區,九龍,室,101,,1,1樓,座,2,德朗邨,,,,,,,,承啟道,28,,TAK PUI HOUSE,KOWLOON CITY DISTRICT,KLN,FLAT,101,,1,1/F,BLK,2,Y,TAK LONG ESTATE,,,,,,,,SHING KAI ROAD,28,,3903321291T20131227
Point,114.20413,22.3299,821207,839075,3907621188T20131227,德珊樓,九龍城區,九龍,室,101,,1,1樓,座,3,德朗邨,,,,,,,,承啟道,28,,TAK SHAN HOUSE,KOWLOON CITY DISTRICT,KLN,FLAT,101,,1,1/F,BLK,3,Y,TAK LONG ESTATE,,,,,,,,SHING KAI ROAD,28,,3907621188T20131227
Point,114.20399,22.32938,821149,839061,3906121129T20131227,德琦樓,九龍城區,九龍,室,101,,1,1樓,座,4,德朗邨,,,,,,,,承啟道,28,,TAK KEI HOUSE,KOWLOON CITY DISTRICT,KLN,FLAT,101,,1,1/F,BLK,4,Y,TAK LONG ESTATE,,,,,,,,SHING KAI ROAD,28,,3906121129T20131227
Point,114.20331,22.32944,821156,838991,3899221158T20140113,德璋樓,九龍城區,九龍,室,101,,1,1樓,座,6,德朗邨,,,,,,,,承啟道,28,,TAK CHEUNG HOUSE,KOWLOON CITY DISTRICT,KLN,FLAT,101,,1,1/F,BLK,6,Y,TAK LONG ESTATE,,,,,,,,SHING KAI ROAD,28,,3899221158T20140113
Point,114.20297,22.32973,821188,838957,3895221180T20140113,德瑩樓,九龍城區,九龍,室,101,,1,1樓,座,7,德朗邨,,,,,,,,承啟道,28,,TAK YING HOUSE,KOWLOON CITY DISTRICT,KLN,FLAT,101,,1,1/F,BLK,7,Y,TAK LONG ESTATE,,,,,,,,SHING KAI ROAD,28,,3895221180T20140113
Point,114.20262,22.33005,821224,838920,3891521216T20140113,德瓏樓,九龍城區,九龍,室,101,,1,1樓,座,8,德朗邨,,,,,,,,承啟道,28,,TAK LOONG HOUSE,KOWLOON CITY DISTRICT,KLN,FLAT,101,,1,1/F,BLK,8,Y,TAK LONG ESTATE,,,,,,,,SHING KAI ROAD,28,,3891521216T20140113
Point,114.20224,22.33041,821263,838881,3888121264T20140113,德瑤樓,九龍城區,九龍,室,101,,1,1樓,座,9,德朗邨,,,,,,,,承啟道,28,,TAK YIU HOUSE,KOWLOON CITY DISTRICT,KLN,FLAT,101,,1,1/F,BLK,9,Y,TAK LONG ESTATE,,,,,,,,SHING KAI ROAD,28,,3888121264T20140113
Point,114.20275,22.33312,821563,838933,3893421564T20120423,滿晴樓,九龍城區,九龍,室,101,,1,1樓,座,5,啓晴邨,,,,,,,,沐虹街,12,,MUN CHING HOUSE,KOWLOON CITY DISTRICT,KLN,FLAT,101,,1,1/F,BLK,5,Y,KAI CHING ESTATE,,,,,,,,MUK HUNG STREET,12,,3893421564T20120423
Point,114.20326,22.33189,821428,838986,3899121426T20120423,康晴樓,九龍城區,九龍,室,201,,2,2樓,座,1,啓晴邨,,,,,,,,沐虹街,12,,HONG CHING HOUSE,KOWLOON CITY DISTRICT,KLN,FLAT,201,,2,2/F,BLK,1,Y,KAI CHING ESTATE,,,,,,,,MUK HUNG STREET,12,,3899121426T20120423
Point,114.20347,22.33243,821487,839008,3899921487T20120423,樂晴樓,九龍城區,九龍,室,101,,1,1樓,座,2,啓晴邨,,,,,,,,沐虹街,12,,LOK CHING HOUSE,KOWLOON CITY DISTRICT,KLN,FLAT,101,,1,1/F,BLK,2,Y,KAI CHING ESTATE,,,,,,,,MUK HUNG STREET,12,,3899921487T20120423
Point,114.20336,22.33291,821541,838997,3900521545T20120423,欣晴樓,九龍城區,九龍,室,101,,1,1樓,座,3,啓晴邨,,,,,,,,沐虹街,12,,YAN CHING HOUSE,KOWLOON CITY DISTRICT,KLN,FLAT,101,,1,1/F,BLK,3,Y,KAI CHING ESTATE,,,,,,,,MUK HUNG STREET,12,,3900521545T20120423
Point,114.20369,22.32892,821099,839031,3903121099T20131227,德瑞樓,九龍城區,九龍,室,101,,1,1樓,座,5,德朗邨,,,,,,,,承啟道,28,,TAK SUI HOUSE,KOWLOON CITY DISTRICT,KLN,FLAT,101,,1,1/F,BLK,5,Y,TAK LONG ESTATE,,,,,,,,SHING KAI ROAD,28,,3903121099T20131227
Point,114.20237,22.33274,821521,838895,3889621523T20120423,悅晴樓,九龍城區,九龍,室,101,,1,1樓,座,6,啓晴邨,,,,,,,,沐虹街,12,,YUET CHING HOUSE,KOWLOON CITY DISTRICT,KLN,FLAT,101,,1,1/F,BLK,6,Y,KAI CHING ESTATE,,,,,,,,MUK HUNG STREET,12,,3889621523T20120423
Point,114.13824,22.36413,824998,832289,3227424987T20050430,,葵青區,新界,,,,,,,,石籬一邨,,,,,,,,圍乪街,10,,,KWAI TSING DISTRICT,NT,,,,,,,,,SHEK LEI (I) ESTATE,,,,,,,,WAI KEK STREET,10,,3227424987T20050430
Point,114.12431,22.36183,824743,830854,3085424744T20110524,,葵青區,新界,,,,,,,,葵聯邨,,,,,,,,葵聯路,80,,,KWAI TSING DISTRICT,NT,,,,,,,,,KWAI LUEN ESTATE,,,,,,,,KWAI LUEN ROAD,80,,3085424744T20110524
Point,114.13755,22.36268,824837,832218,3221724837T20100303,,葵青區,新界,,,,,,,,石籬一邨,,,,,,,,梨貝街,16,,,KWAI TSING DISTRICT,NT,,,,,,,,,SHEK LEI (I) ESTATE,,,,,,,,LEI PUI STREET,16,,3221724837T20100303
Point,114.13999,22.37023,825673,832470,3247025674T20050805,禮石樓,葵青區,新界,室,401,,4,4樓,,,石蔭邨,,,,,,,,梨木道,120,,LAI SHEK HOUSE,KWAI TSING DISTRICT,NT,FLAT,401,,4,4/F,,,,SHEK YAM ESTATE,,,,,,,,LEI MUK ROAD,120,,3247025674T20050805
Point,114.12296,22.36194,824755,830715,3076324744T20050430,,葵青區,新界,室,201,,2,2樓,座,5,葵盛西邨,,,,,,,,,,,,KWAI TSING DISTRICT,NT,FLAT,201,,2,2/F,BLK,5,Y,KWAI SHING WEST ESTATE,,,,,,,,,,,3075924751T20050430
Point,114.10926,22.34836,823253,829304,2930223243T20050430,青柏樓,葵青區,新界,室,201,,2,2樓,,,長青邨,,,,,,,,,,,CHING PAK HOUSE,KWAI TSING DISTRICT,NT,FLAT,201,,2,2/F,,,,CHEUNG CHING ESTATE,,,,,,,,,,,2930223243T20050430
Point,114.10374,22.36312,824887,828736,2871424885T20050430,亮發樓,葵青區,新界,室,301,,3,3樓,座,3,長發邨,,,,,,,青衣,担杆山路,6,,LEUNG FAT HOUSE,KWAI TSING DISTRICT,NT,FLAT,301,,3,3/F,BLK,3,Y,CHEUNG FAT ESTATE,,,,,,,TSING YI,TAM KON SHAN ROAD,6,,2871424885T20050430
Point,114.10288,22.36294,824867,828647,2862124869T20050430,賢發樓,葵青區,新界,室,201,,2,2樓,座,4,長發邨,,,,,,,青衣,担杆山路,6,,YIN FAT HOUSE,KWAI TSING DISTRICT,NT,FLAT,201,,2,2/F,BLK,4,Y,CHEUNG FAT ESTATE,,,,,,,TSING YI,TAM KON SHAN ROAD,6,,2862124869T20050430
Point,114.12456,22.36691,825306,830880,3087925306T20050430,富華樓,葵青區,新界,室,201,,2,2樓,,,大窩口邨,,,,,,,葵涌,大窩口道,15,,FU WAH HOUSE,KWAI TSING DISTRICT,NT,FLAT,201,,2,2/F,,,,TAI WO HAU ESTATE,,,,,,,KWAI CHUNG,TAI WO HAU ROAD,15,,3087925306T20050430
Point,114.12258,22.3669,825305,830676,3067325304T20050430,富德樓,葵青區,新界,室,101,,1,1樓,,,大窩口邨,,,,,,,葵涌,大窩口道,15,,FU TAK HOUSE,KWAI TSING DISTRICT,NT,FLAT,101,,1,1/F,,,,TAI WO HAU ESTATE,,,,,,,KWAI CHUNG,TAI WO HAU ROAD,15,,3067325304T20050430
Point,114.13248,22.36693,825307,831696,3171825292T20050430,興國樓,葵青區,新界,室,205,,2,2樓,,,葵興邨,,,,,,,葵涌,禾葵里,2,,HING KOK HOUSE,KWAI TSING DISTRICT,NT,FLAT,205,,2,2/F,,,,KWAI HING ESTATE,,,,,,,KWAI CHUNG,WO KWAI LANE,2,,3171825292T20050430
Point,114.13268,22.36626,825234,831716,3171825237T20050430,興逸樓,葵青區,新界,室,201,,2,2樓,,,葵興邨,,,,,,,葵涌,禾葵里,2,,HING YAT HOUSE,KWAI TSING DISTRICT,NT,FLAT,201,,2,2/F,,,,KWAI HING ESTATE,,,,,,,KWAI CHUNG,WO KWAI LANE,2,,3171825237T20050430
Point,114.1304,22.36018,824561,831481,3150224579T20050430,葵德樓,葵青區,新界,室,201,,2,2樓,,,葵芳邨,,,,,,,葵涌,興芳路,177,,KWAI TAK HOUSE,KWAI TSING DISTRICT,NT,FLAT,201,,2,2/F,,,,KWAI FONG ESTATE,,,,,,,KWAI CHUNG,HING FONG ROAD,177,,3150224579T20050430
Point,114.10683,22.34968,823399,829053,2905123408T20050430,青梅樓,葵青區,新界,室,201,,2,2樓,,,長青邨,,,,,,,,,,,CHING MUI HOUSE,KWAI TSING DISTRICT,NT,FLAT,201,,2,2/F,,,,CHEUNG CHING ESTATE,,,,,,,,,,,2905123408T20050430
Point,114.13227,22.36582,825185,831674,3166525186T20050430,興樂樓,葵青區,新界,室,201,,2,2樓,,,葵興邨,,,,,,,葵涌,禾葵里,2,,HING LOK HOUSE,KWAI TSING DISTRICT,NT,FLAT,201,,2,2/F,,,,KWAI HING ESTATE,,,,,,,KWAI CHUNG,WO KWAI LANE,2,,3166525186T20050430
Point,114.09849,22.35585,824082,828194,2819324081T20050430,亨業樓,葵青區,新界,室,101,,1,1樓,座,3,長亨邨,,,,,,,青衣,寮肚路,6,,HANG YIP HOUSE,KWAI TSING DISTRICT,NT,FLAT,101,,1,1/F,BLK,3,Y,CHEUNG HANG ESTATE,,,,,,,TSING YI,LIU TO ROAD,6,,2819324081T20050430
Point,114.10514,22.35993,824534,828880,2888424537T20050430,安泊樓,葵青區,新界,室,201,,2,2樓,座,7,長安邨,,,,,,,青衣,担杆山路,1,,ON PAK HOUSE,KWAI TSING DISTRICT,NT,FLAT,201,,2,2/F,BLK,7,Y,CHEUNG ON ESTATE,,,,,,,TSING YI,TAM KON SHAN ROAD,1,,2888424537T20050430
Point,114.13153,22.35213,823669,831598,3161023662T20050430,華瑤樓,葵青區,新界,室,101,,1,1樓,,,麗瑤邨,,,,,,,,,,,WAH YIU HOUSE,KWAI TSING DISTRICT,NT,FLAT,101,,1,1/F,,,,LAI YIU ESTATE,,,,,,,,,,,3161023662T20050430
Point,114.13916,22.37326,826009,832384,3238526010T20050430,蔭裕樓,葵青區,新界,室,101,,1,1樓,座,1,石蔭東邨,,,,,,,葵涌,大白田街,130,,YAM YUE HOUSE,KWAI TSING DISTRICT,NT,FLAT,101,,1,1/F,BLK,1,Y,SHEK YAM EAST ESTATE,,,,,,,KWAI CHUNG,TAI PAK TIN STREET,130,,3238526010T20050430
Point,114.14176,22.36932,825572,832651,3265525581T20050430,豐蔭樓,葵青區,新界,室,201,,2,2樓,座,7,安蔭邨,,,,,,,葵涌,安足街,7,,FUNG YAM HOUSE,KWAI TSING DISTRICT,NT,FLAT,201,,2,2/F,BLK,7,Y,ON YAM ESTATE,,,,,,,KWAI CHUNG,ON CHUK STREET,7,,3265525581T20050430
Point,114.12804,22.36346,824924,831238,3124124924T20050430,盛富樓,葵青區,新界,室,201,,2,2樓,,,葵盛東邨,,,,,,,葵涌,葵盛圍,63,,SHING FU HOUSE,KWAI TSING DISTRICT,NT,FLAT,201,,2,2/F,,,,KWAI SHING EAST ESTATE,,,,,,,KWAI CHUNG,KWAI SHING CIRCUIT,63,,3124124924T20050430
Point,114.1423,22.37087,825744,832707,3271925774T20050430,耀蔭樓(第4座)及德蔭樓,葵青區,新界,室,101,,1,1樓,,,安蔭邨,,,,,,,葵涌,安足街,7,,YIU YAM HSE(BLK 4) & TAK YAM HSE,KWAI TSING DISTRICT,NT,FLAT,101,,1,1/F,,,,ON YAM ESTATE,,,,,,,KWAI CHUNG,ON CHUK STREET,7,,3270325746T20050430
Point,114.10329,22.35046,823485,828689,2868923491T20050430,康盛樓,葵青區,新界,室,201,,2,2樓,,,長康邨,,,,,,,青衣,青康路,12,,HONG SHING HOUSE,KWAI TSING DISTRICT,NT,FLAT,201,,2,2/F,,,,CHEUNG HONG ESTATE,,,,,,,TSING YI,CHING HONG ROAD,12,,2868923491T20050430
Point,114.12839,22.3594,824474,831274,3127324472T20050430,葵喜樓,葵青區,新界,室,101,,1,1樓,座,J,葵芳邨,,,,,,,葵涌,興芳路,177,,KWAI HEI HSE,KWAI TSING DISTRICT,NT,FLAT,101,,1,1/F,BLK,J,Y,KWAI FONG ESTATE,,,,,,,KWAI CHUNG,HING FONG ROAD,177,,3127324472T20050430
Point,114.1396,22.3669,825305,832429,3242125293T20050430,石福樓,葵青區,新界,室,101,,1,1樓,,,石籬(二)邨,,,,,,,葵涌,大白田街,6,,SHEK FOOK HSE,KWAI TSING DISTRICT,NT,FLAT,101,,1,1/F,,,,SHEK LEI (II) ESTATE,,,,,,,KWAI CHUNG,TAI PAK TIN STREET,6,,3242125293T20050430
Point,114.12255,22.36457,825047,830673,3067325047T20050430,,葵青區,新界,室,1A,,1,1樓,座,1,高盛臺,,,,,,,葵涌,葵盛圍,188,,,KWAI TSING DISTRICT,NT,FLAT,1A,,1,1/F,TOWER,1,Y,HIGH PROSPERITY TERRACE,,,,,,,KWAI CHUNG,KWAI SHING CIRCUIT,188,,3067325047T20050430
Point,114.12149,22.36072,824620,830563,3057824618T20050430,,葵青區,新界,室,201,,2,2樓,座,8,葵盛西邨,,,,,,,,,,,,KWAI TSING DISTRICT,NT,FLAT,201,,2,2/F,BLK,8,Y,KWAI SHING WEST ESTATE,,,,,,,,,,,3057824618T20050430
Point,114.12641,22.34601,822992,831070,3105823029T20050430,樂景樓,葵青區,新界,室,1,,,L3樓,,,荔景邨,,,,,,,,,,,LOK KING HOUSE,KWAI TSING DISTRICT,NT,FLAT,1,,,L3/F,,,,LAI KING ESTATE,,,,,,,,,,,3105823029T20050430
Point,114.12857,22.3669,825305,831292,3129225305T20050624,翠葵樓,葵青區,新界,室,101,,1,1樓,座,6,葵涌邨,,,,,,,,,,,CHUI KWAI HSE,KWAI TSING DISTRICT,NT,FLAT,101,,1,1/F,BLK,6,Y,KWAI CHUNG ESTATE,,,,,,,,,,,3129225305T20050624
Point,114.12492,22.36834,825464,830917,3092225490T20050430,富平樓,葵青區,新界,室,201,,2,2樓,,,大窩口邨,,,,,,,葵涌,大窩口道,15,,FU PING HOUSE,KWAI TSING DISTRICT,NT,FLAT,201,,2,2/F,,,,TAI WO HAU ESTATE,,,,,,,KWAI CHUNG,TAI WO HAU ROAD,15,,3092225490T20050430
Point,114.12922,22.35804,824323,831359,3136024324T20050430,葵正樓,葵青區,新界,室,101,,1,1樓,,,葵芳邨,,,,,,,葵涌,興芳路,177,,KWAI CHING HOUSE,KWAI TSING DISTRICT,NT,FLAT,101,,1,1/F,,,,KWAI FONG ESTATE,,,,,,,KWAI CHUNG,HING FONG ROAD,177,,3136024324T20050430
Point,114.12262,22.36598,825203,830680,3069725201T20050430,富泰樓,葵青區,新界,室,101,,1,1樓,,,大窩口邨,,,,,,,葵涌,大窩口道,15,,FU TAI HOUSE,KWAI TSING DISTRICT,NT,FLAT,101,,1,1/F,,,,TAI WO HAU ESTATE,,,,,,,KWAI CHUNG,TAI WO HAU ROAD,15,,3068225206T20050430
Point,114.10988,22.34641,823036,829367,2936923057T20050430,青桃樓,葵青區,新界,室,101,,1,1樓,,,長青邨,,,,,,,,,,,CHING TAO HOUSE,KWAI TSING DISTRICT,NT,FLAT,101,,1,1/F,,,,CHEUNG CHING ESTATE,,,,,,,,,,,2936923057T20050430
Point,114.10481,22.34951,823380,828845,2884823364T20050430,康和樓,葵青區,新界,室,201,,2,2樓,,,長康邨,,,,,,,青衣,青康路,12,,HONG WO HOUSE,KWAI TSING DISTRICT,NT,FLAT,201,,2,2/F,,,,CHEUNG HONG ESTATE,,,,,,,TSING YI,CHING HONG ROAD,12,,2884823364T20050430
Point,114.12615,22.34692,823093,831043,3106323089T20050430,安景樓,葵青區,新界,室,201,,2,2樓,,,荔景邨,,,,,,,,,,,ON KING HOUSE,KWAI TSING DISTRICT,NT,FLAT,201,,2,2/F,,,,LAI KING ESTATE,,,,,,,,,,,3106323089T20050430
Point,114.12833,22.36779,825404,831268,3128425404T20050624,綠葵樓,葵青區,新界,室,101,,1,1樓,座,8-9,葵涌邨,,,,,,,,,,,LUK KWAI HSE,KWAI TSING DISTRICT,NT,FLAT,101,,1,1/F,BLK,8-9,Y,KWAI CHUNG ESTATE,,,,,,,,,,,3128425404T20050624
Point,114.12821,22.363,824873,831255,3125724877T20050430,盛樂樓,葵青區,新界,室,119,,1,1樓,,,葵盛東邨,,,,,,,葵涌,葵盛圍,63,,SHING LOK HOUSE,KWAI TSING DISTRICT,NT,FLAT,119,,1,1/F,,,,KWAI SHING EAST ESTATE,,,,,,,KWAI CHUNG,KWAI SHING CIRCUIT,63,,3125724877T20050430
Point,114.1043,22.36094,824646,828793,2877624642T20050430,安湖樓,葵青區,新界,室,201,,2,2樓,座,5,長安邨,,,,,,,青衣,担杆山路,1,,ON WU HOUSE,KWAI TSING DISTRICT,NT,FLAT,201,,2,2/F,BLK,5,Y,CHEUNG ON ESTATE,,,,,,,TSING YI,TAM KON SHAN ROAD,1,,2877624642T20050430
Point,114.14036,22.36642,825251,832507,3250725248T20050430,石榮樓,葵青區,新界,室,101,,1,1樓,,,石籬(二)邨,,,,,,,葵涌,石梨街,11,,SHEK WING HSE,KWAI TSING DISTRICT,NT,FLAT,101,,1,1/F,,,,SHEK LEI (II) ESTATE,,,,,,,KWAI CHUNG,SHEK LI STREET,11,,3250725248T20050430
Point,114.12284,22.365,825094,830703,3070325094T20050430,,葵青區,新界,室,1A,,1,1樓,座,2,高盛臺,,,,,,,葵涌,葵盛圍,188,,,KWAI TSING DISTRICT,NT,FLAT,1A,,1,1/F,TOWER,2,Y,HIGH PROSPERITY TERRACE,,,,,,,KWAI CHUNG,KWAI SHING CIRCUIT,188,,3070325094T20050430
Point,114.10841,22.34787,823198,829215,2921223188T20050430,青松樓,葵青區,新界,室,201,,2,2樓,,,長青邨,,,,,,,,,,,CHING CHUNG HOUSE,KWAI TSING DISTRICT,NT,FLAT,201,,2,2/F,,,,CHEUNG CHING ESTATE,,,,,,,,,,,2921223188T20050430
Point,114.1027,22.35586,824083,828628,2862624080T20050430,宜逸樓,葵青區,新界,室,301,,3,3樓,,,青衣邨,,,,,,,青衣,楓樹窩路,10,,YEE YAT HOUSE,KWAI TSING DISTRICT,NT,FLAT,301,,3,3/F,,,,TSING YI ESTATE,,,,,,,TSING YI,FUNG SHUE WO ROAD,10,,2862624080T20050430
Point,114.13181,22.35347,823818,831626,3162723817T20050430,貴瑤樓,葵青區,新界,室,201,,2,2樓,,,麗瑤邨,,,,,,,,,,,KWAI YIU HOUSE,KWAI TSING DISTRICT,NT,FLAT,201,,2,2/F,,,,LAI YIU ESTATE,,,,,,,,,,,3162723817T20050430
Point,114.12549,22.36742,825363,830976,3096525336T20050430,富貴樓,葵青區,新界,室,201,,2,2樓,,,大窩口邨,,,,,,,葵涌,大窩口道,15,,FU KWAI HOUSE,KWAI TSING DISTRICT,NT,FLAT,201,,2,2/F,,,,TAI WO HAU ESTATE,,,,,,,KWAI CHUNG,TAI WO HAU ROAD,15,,3096525336T20050430
Point,114.13755,22.36268,824837,832218,3224424862T20100303,石俊樓,葵青區,新界,室,201,,2,2樓,,,石籬邨,,,,,,,葵涌,梨貝街,16,,SHEK CHUN HOUSE,KWAI TSING DISTRICT,NT,FLAT,201,,2,2/F,,,,SHEK LEI ESTATE,,,,,,,KWAI CHUNG,LEI PUI STREET,16,,3221724837T20100303
Point,114.12586,22.36404,824988,831013,3100824989T20050430,盛國樓,葵青區,新界,室,101,,1,1樓,,,葵盛東邨,,,,,,,葵涌,葵盛圍,63,,SHING KWOK HOUSE,KWAI TSING DISTRICT,NT,FLAT,101,,1,1/F,,,,KWAI SHING EAST ESTATE,,,,,,,KWAI CHUNG,KWAI SHING CIRCUIT,63,,3100824989T20050430
Point,114.10441,22.35993,824534,828804,2882324523T20050430,安潮樓,葵青區,新界,室,201,,2,2樓,座,6,長安邨,,,,,,,青衣,担杆山路,1,,ON CHIU HOUSE,KWAI TSING DISTRICT,NT,FLAT,201,,2,2/F,BLK,6,Y,CHEUNG ON ESTATE,,,,,,,TSING YI,TAM KON SHAN ROAD,1,,2882324523T20050430
Point,114.14213,22.36897,825534,832689,3270625567T20050430,盛蔭樓,葵青區,新界,室,201,,2,2樓,座,8,安蔭邨,,,,,,,葵涌,安足街,7,,SHING YAM HOUSE,KWAI TSING DISTRICT,NT,FLAT,201,,2,2/F,BLK,8,Y,ON YAM ESTATE,,,,,,,KWAI CHUNG,ON CHUK STREET,7,,3269825538T20050430
Point,114.1244,22.36807,825434,830864,3086325422T20050430,富安樓,葵青區,新界,室,201,,2,2樓,,,大窩口邨,,,,,,,葵涌,大窩口道,15,,FU ON HOUSE,KWAI TSING DISTRICT,NT,FLAT,201,,2,2/F,,,,TAI WO HAU ESTATE,,,,,,,KWAI CHUNG,TAI WO HAU ROAD,15,,3086325422T20050430
Point,114.12987,22.36393,824976,831426,3141024952T20050430,盛喜樓,葵青區,新界,室,101,,1,1樓,,,葵盛東邨,,,,,,,葵涌,葵盛圍,63,,SHING HEI HOUSE,KWAI TSING DISTRICT,NT,FLAT,101,,1,1/F,,,,KWAI SHING EAST ESTATE,,,,,,,KWAI CHUNG,KWAI SHING CIRCUIT,63,,3141024952T20050430
Point,114.10274,22.36191,824753,828632,2863724755T20050430,俊發樓,葵青區,新界,室,201,,2,2樓,座,5,長發邨,,,,,,,青衣,担杆山路,6,,CHUN FAT HOUSE,KWAI TSING DISTRICT,NT,FLAT,201,,2,2/F,BLK,5,Y,CHEUNG FAT ESTATE,,,,,,,TSING YI,TAM KON SHAN ROAD,6,,2863724755T20050430
Point,114.1273,22.36735,825355,831162,3116225354T20050430,芊葵樓,葵青區,新界,室,101,,1,1樓,座,10,葵涌邨,,,,,,,,,,,CHIN KWAI HSE,KWAI TSING DISTRICT,NT,FLAT,101,,1,1/F,BLK,10,Y,KWAI CHUNG ESTATE,,,,,,,,,,,3116225354T20050430
Point,114.13994,22.36523,825120,832464,3246325120T20070614,石怡樓,葵青區,新界,室,101,,1,1樓,,,石籬(二)邨,,,,,,,葵涌,石梨街,8,,SHEK YI HSE,KWAI TSING DISTRICT,NT,FLAT,101,,1,1/F,,,,SHEK LEI (II) ESTATE,,,,,,,KWAI CHUNG,SHEK LI STREET,8,,3246325120T20070614
Point,114.10536,22.34894,823317,828902,2891223312T20050430,康貴樓,葵青區,新界,室,201,,2,2樓,,,長康邨,,,,,,,青衣,青康路,12,,HONG KWAI HOUSE,KWAI TSING DISTRICT,NT,FLAT,201,,2,2/F,,,,CHEUNG HONG ESTATE,,,,,,,TSING YI,CHING HONG ROAD,12,,2891223312T20050430
Point,114.10531,22.34978,823410,828896,2889623409T20050430,康華樓,葵青區,新界,室,201,,2,2樓,,,長康邨,,,,,,,青衣,青康路,12,,HONG WAH HOUSE,KWAI TSING DISTRICT,NT,FLAT,201,,2,2/F,,,,CHEUNG HONG ESTATE,,,,,,,TSING YI,CHING HONG ROAD,12,,2889623409T20050430
Point,114.09873,22.3565,824154,828219,2821824153T20050430,亨緻樓,葵青區,新界,室,101,,1,1樓,座,4,長亨邨,,,,,,,青衣,寮肚路,6,,HANG CHI HOUSE,KWAI TSING DISTRICT,NT,FLAT,101,,1,1/F,BLK,4,Y,CHEUNG HANG ESTATE,,,,,,,TSING YI,LIU TO ROAD,6,,2821824153T20050430
Point,114.1219,22.36016,824559,830606,3061524509T20050430,,葵青區,新界,室,201,,2,2樓,座,9,葵盛西邨,,,,,,,,,,,,KWAI TSING DISTRICT,NT,FLAT,201,,2,2/F,BLK,9,Y,KWAI SHING WEST ESTATE,,,,,,,,,,,3060524539T20050430
Point,114.12648,22.35125,823572,831077,3107523543T20050430,風景樓,葵青區,新界,室,201,,2,2樓,,,荔景邨,,,,,,,,,,,FUNG KING HOUSE,KWAI TSING DISTRICT,NT,FLAT,201,,2,2/F,,,,LAI KING ESTATE,,,,,,,,,,,3107523543T20050430
Point,114.12401,22.36959,825603,830824,3081825582T20050430,富碧樓,葵青區,新界,室,201,,2,2樓,,,大窩口邨,,,,,,,葵涌,大窩口道,15,,FU PIK HOUSE,KWAI TSING DISTRICT,NT,FLAT,201,,2,2/F,,,,TAI WO HAU ESTATE,,,,,,,KWAI CHUNG,TAI WO HAU ROAD,15,,3081825582T20050430
Point,114.12838,22.35901,824431,831274,3127324432T20050430,葵歡樓,葵青區,新界,室,101,,1,1樓,座,L,葵芳邨,,,,,,,葵涌,興芳路,177,,KWAI FOON HSE,KWAI TSING DISTRICT,NT,FLAT,101,,1,1/F,BLK,L,Y,KWAI FONG ESTATE,,,,,,,KWAI CHUNG,HING FONG ROAD,177,,3127324432T20050430
Point,114.13949,22.37134,825796,832418,3244025863T20050430,勇石樓,葵青區,新界,室,101,,1,1樓,,,石蔭邨,,,,,,,葵涌,梨木道,120,,YUNG SHEK HSE,KWAI TSING DISTRICT,NT,FLAT,101,,1,1/F,,,,SHEK YAM ESTATE,,,,,,,KWAI CHUNG,LEI MUK ROAD,120,,3242825865T20050430
Point,114.09818,22.3578,824298,828162,2816124293T20050430,亨俊樓,葵青區,新界,室,103,,1,1樓,座,6,長亨邨,,,,,,,青衣,寮肚路,6,,HANG CHUN HOUSE,KWAI TSING DISTRICT,NT,FLAT,103,,1,1/F,BLK,6,Y,CHEUNG HANG ESTATE,,,,,,,TSING YI,LIU TO ROAD,6,,2816124293T20050430
Point,114.12553,22.36323,824898,830979,3097124896T20050430,盛家樓,葵青區,新界,室,101,,1,1樓,,,葵盛東邨,,,,,,,葵涌,葵盛圍,63,,SHING KA HOUSE,KWAI TSING DISTRICT,NT,FLAT,101,,1,1/F,,,,KWAI SHING EAST ESTATE,,,,,,,KWAI CHUNG,KWAI SHING CIRCUIT,63,,3097124896T20050430
Point,114.14111,22.36753,825375,832585,3258725378T20050430,石欣樓,葵青區,新界,室,101,,1,1樓,,,石籬(二)邨,,,,,,,葵涌,石梨街,17,,SHEK YAN HSE,KWAI TSING DISTRICT,NT,FLAT,101,,1,1/F,,,,SHEK LEI (II) ESTATE,,,,,,,KWAI CHUNG,SHEK LI STREET,17,,3258725378T20050430
Point,114.10562,22.34996,823430,828928,2892823434T20050430,康富樓,葵青區,新界,室,201,,2,2樓,,,長康邨,,,,,,,青衣,青康路,12,,HONG FU HOUSE,KWAI TSING DISTRICT,NT,FLAT,201,,2,2/F,,,,CHEUNG HONG ESTATE,,,,,,,TSING YI,CHING HONG ROAD,12,,2892823434T20050430
Point,114.10517,22.36063,824611,828882,2886824622T20050430,安湄樓,葵青區,新界,室,301,,3,3樓,座,8,長安邨,,,,,,,青衣,担杆山路,1,,ON MEI HOUSE,KWAI TSING DISTRICT,NT,FLAT,301,,3,3/F,BLK,8,Y,CHEUNG ON ESTATE,,,,,,,TSING YI,TAM KON SHAN ROAD,1,,2886824622T20050430
Point,114.10312,22.35349,823821,828671,2867123823T20050430,宜居樓,葵青區,新界,室,201,,2,2樓,,,青衣邨,,,,,,,青衣,楓樹窩路,10,,YEE KUI HOUSE,KWAI TSING DISTRICT,NT,FLAT,201,,2,2/F,,,,TSING YI ESTATE,,,,,,,TSING YI,FUNG SHUE WO ROAD,10,,2867123823T20050430
Point,114.13049,22.36081,824630,831490,3148524645T20050430,葵安樓,葵青區,新界,室,201,,2,2樓,,,葵芳邨,,,,,,,葵涌,興芳路,177,,KWAI ON HOUSE,KWAI TSING DISTRICT,NT,FLAT,201,,2,2/F,,,,KWAI FONG ESTATE,,,,,,,KWAI CHUNG,HING FONG ROAD,177,,3148524645T20050430
Point,114.10116,22.34995,823429,828469,2848223436T20050430,康祥樓,葵青區,新界,室,A0201,,2,2樓,,,長康邨,,,,,,,青衣,青康路,12,,HONG CHEUNG HOUSE,KWAI TSING DISTRICT,NT,FLAT,A0201,,2,2/F,,,,CHEUNG HONG ESTATE,,,,,,,TSING YI,CHING HONG ROAD,12,,2848223436T20050430
Point,114.10343,22.36113,824666,828704,2868624661T20050430,安清樓,葵青區,新界,室,201,,2,2樓,座,10,長安邨,,,,,,,青衣,担杆山路,1,,ON CHING HOUSE,KWAI TSING DISTRICT,NT,FLAT,201,,2,2/F,BLK,10,Y,CHEUNG ON ESTATE,,,,,,,TSING YI,TAM KON SHAN ROAD,1,,2868624661T20050430
Point,114.10041,22.36161,824720,828392,2838624719T20050430,安海樓,葵青區,新界,室,201,,2,2樓,座,1,長安邨,,,,,,,青衣,担杆山路,1,,ON HOI HOUSE,KWAI TSING DISTRICT,NT,FLAT,201,,2,2/F,BLK,1,Y,CHEUNG ON ESTATE,,,,,,,TSING YI,TAM KON SHAN ROAD,1,,2838624719T20050430
Point,114.12644,22.36953,825596,831074,3107425596T20050729,旭葵樓,葵青區,新界,室,101,,1,1樓,座,16,葵涌邨,,,,,,,,,,,YUK KWAI HSE,KWAI TSING DISTRICT,NT,FLAT,101,,1,1/F,BLK,16,Y,KWAI CHUNG ESTATE,,,,,,,,,,,3107425596T20050729
Point,114.13748,22.36114,824667,832211,3220024631T20100303,石逸樓,葵青區,新界,室,201,,2,2樓,,,石籬邨,,,,,,,葵涌,梨貝街,24,,SHEK YAT HOUSE,KWAI TSING DISTRICT,NT,FLAT,201,,2,2/F,,,,SHEK LEI ESTATE,,,,,,,KWAI CHUNG,LEI PUI STREET,24,,3221024666T20100303
Point,114.12449,22.36865,825499,830873,3086925506T20050430,富靜樓,葵青區,新界,室,201,,2,2樓,,,大窩口邨,,,,,,,葵涌,大窩口道,15,,FU CHING HOUSE,KWAI TSING DISTRICT,NT,FLAT,201,,2,2/F,,,,TAI WO HAU ESTATE,,,,,,,KWAI CHUNG,TAI WO HAU ROAD,15,,3086925506T20050430
Point,114.12694,22.36953,825596,831125,3112425597T20050729,雅葵樓,葵青區,新界,室,101,,1,1樓,座,17,葵涌邨,,,,,,,,,,,NGA KWAI HSE,KWAI TSING DISTRICT,NT,FLAT,101,,1,1/F,BLK,17,Y,KWAI CHUNG ESTATE,,,,,,,,,,,3112425597T20050729
Point,114.12317,22.36105,824657,830737,3076024669T20050430,,葵青區,新界,室,212,,2,2樓,座,7,葵盛西邨,,,,,,,,,,,,KWAI TSING DISTRICT,NT,FLAT,212,,2,2/F,BLK,7,Y,KWAI SHING WEST ESTATE,,,,,,,,,,,3075624666T20050430
Point,114.12267,22.35998,824539,830685,3069224529T20050430,,葵青區,新界,室,201,,2,2樓,座,10,葵盛西邨,,,,,,,,,,,,KWAI TSING DISTRICT,NT,FLAT,201,,2,2/F,BLK,10,Y,KWAI SHING WEST ESTATE,,,,,,,,,,,3070924537T20050430
Point,114.14026,22.36748,825368,832497,3250225368T20050430,石富樓,葵青區,新界,室,101,,1,1樓,,,石籬(二)邨,,,,,,,葵涌,大白田街,10,,SHEK FU HOUSE,KWAI TSING DISTRICT,NT,FLAT,101,,1,1/F,,,,SHEK LEI (II) ESTATE,,,,,,,KWAI CHUNG,TAI PAK TIN STREET,10,,3250225368T20050430
Point,114.09881,22.35748,824262,828228,2822524254T20050430,亨怡樓,葵青區,新界,室,101,,1,1樓,座,5,長亨邨,,,,,,,青衣,寮肚路,6,,HANG YEE HOUSE,KWAI TSING DISTRICT,NT,FLAT,101,,1,1/F,BLK,5,Y,CHEUNG HANG ESTATE,,,,,,,TSING YI,LIU TO ROAD,6,,2822524254T20050430
Point,114.10359,22.35025,823462,828719,2871923458T20050430,康安樓,葵青區,新界,室,201,,2,2樓,,,長康邨,,,,,,,青衣,青康路,12,,HONG ON HOUSE,KWAI TSING DISTRICT,NT,FLAT,201,,2,2/F,,,,CHEUNG HONG ESTATE,,,,,,,TSING YI,CHING HONG ROAD,12,,2871923458T20050430
Point,114.12353,22.36698,825314,830774,3074225319T20050430,富國樓,葵青區,新界,室,301,,3,3樓,,,大窩口邨,,,,,,,葵涌,大窩口道,15,,FU KWOK HOUSE,KWAI TSING DISTRICT,NT,FLAT,301,,3,3/F,,,,TAI WO HAU ESTATE,,,,,,,KWAI CHUNG,TAI WO HAU ROAD,15,,3074225319T20050430
Point,114.12344,22.36872,825506,830764,3075925494T20050430,富民樓,葵青區,新界,室,201,,2,2樓,,,大窩口邨,,,,,,,葵涌,大窩口道,15,,FU MAN HOUSE,KWAI TSING DISTRICT,NT,FLAT,201,,2,2/F,,,,TAI WO HAU ESTATE,,,,,,,KWAI CHUNG,TAI WO HAU ROAD,15,,3074725501T20050430
Point,114.14079,22.36465,825055,832552,3254725066T20050430,石華樓,葵青區,新界,室,201,,2,2樓,,,石籬邨,,,,,,,葵涌,梨貝街,2,,SHEK WAH HSE,KWAI TSING DISTRICT,NT,FLAT,201,,2,2/F,,,,SHEK LEI ESTATE,,,,,,,KWAI CHUNG,LEI PUI STREET,2,,3254725066T20050430
Point,114.12679,22.34998,823431,831109,3111123448T20050430,日景樓,葵青區,新界,室,10,,,G樓,,,荔景邨,,,,,,,,,,,YAT KING HOUSE,KWAI TSING DISTRICT,NT,FLAT,10,,,G/F,,,,LAI KING ESTATE,,,,,,,,,,,3111123448T20050430
Point,114.10292,22.35466,823951,828650,2862923940T20050430,宜業樓,葵青區,新界,室,201,,2,2樓,,,青衣邨,,,,,,,青衣,楓樹窩路,10,,YEE YIP HOUSE,KWAI TSING DISTRICT,NT,FLAT,201,,2,2/F,,,,TSING YI ESTATE,,,,,,,TSING YI,FUNG SHUE WO ROAD,10,,2862923940T20050430
Point,114.12681,22.36756,825378,831112,3110925375T20050430,芷葵樓,葵青區,新界,室,101,,1,1樓,座,11-12,葵涌邨,,,,,,,,,,,TSZ KWAI HSE,KWAI TSING DISTRICT,NT,FLAT,101,,1,1/F,BLK,11-12,N,KWAI CHUNG ESTATE,,,,,,,,,,,3110925375T20050430
Point,114.12611,22.34737,823142,831039,3103823125T20050430,仰景樓,葵青區,新界,室,218,,2,2樓,,,荔景邨,,,,,,,,,,,YEUNG KING HOUSE,KWAI TSING DISTRICT,NT,FLAT,218,,2,2/F,,,,LAI KING ESTATE,,,,,,,,,,,3103823125T20050430
Point,114.13072,22.35307,823773,831514,3151523774T20050430,樂瑤樓,葵青區,新界,室,201,,2,2樓,,,麗瑤邨,,,,,,,,,,,LOK YIU HOUSE,KWAI TSING DISTRICT,NT,FLAT,201,,2,2/F,,,,LAI YIU ESTATE,,,,,,,,,,,3151523774T20050430
Point,114.13206,22.36636,825245,831652,3165525240T20050430,興福樓,葵青區,新界,室,201,,2,2樓,,,葵興邨,,,,,,,葵涌,禾葵里,2,,HING FUK HOUSE,KWAI TSING DISTRICT,NT,FLAT,201,,2,2/F,,,,KWAI HING ESTATE,,,,,,,KWAI CHUNG,WO KWAI LANE,2,,3165525240T20050430
Point,114.12625,22.36456,825045,831054,3104825046T20050430,盛安樓,葵青區,新界,室,101,,1,1樓,,,葵盛東邨,,,,,,,葵涌,葵盛圍,63,,SHING ON HOUSE,KWAI TSING DISTRICT,NT,FLAT,101,,1,1/F,,,,KWAI SHING EAST ESTATE,,,,,,,KWAI CHUNG,KWAI SHING CIRCUIT,63,,3104825046T20050430
Point,114.14222,22.37193,825861,832699,3270025862T20050430,祥蔭樓,葵青區,新界,室,101,,1,1樓,座,3,安蔭邨,,,,,,,葵涌,安足街,7,,CHEUNG YAM HOUSE,KWAI TSING DISTRICT,NT,FLAT,101,,1,1/F,BLK,3,Y,ON YAM ESTATE,,,,,,,KWAI CHUNG,ON CHUK STREET,7,,3270025862T20050430
Point,114.12921,22.36348,824926,831359,3136124950T20050430,盛豐樓,葵青區,新界,室,101,,1,1樓,,,葵盛東邨,,,,,,,葵涌,葵盛圍,63,,SHING FUNG HOUSE,KWAI TSING DISTRICT,NT,FLAT,101,,1,1/F,,,,KWAI SHING EAST ESTATE,,,,,,,KWAI CHUNG,KWAI SHING CIRCUIT,63,,3136124950T20050430
Point,114.1375,22.34274,822629,832212,3221222629T20050430,喜荔樓,葵青區,新界,室,101,,1,1樓,,,華荔邨,,,,,,,葵涌,荔景山路,282,,HEI LAI HSE,KWAI TSING DISTRICT,NT,FLAT,101,,1,1/F,,,,WAH LAI ESTATE,,,,,,,KWAI CHUNG,LAI KING HILL ROAD,282,,3221222629T20050430
Point,114.13824,22.36413,824998,832289,3227024957T20050430,石泰樓,葵青區,新界,室,101,,1,1樓,,,石籬(一)邨,,,,,,,葵涌,圍乪街,10,,SHEK TAI HSE,KWAI TSING DISTRICT,NT,FLAT,101,,1,1/F,,,,SHEK LEI (I) ESTATE,,,,,,,KWAI CHUNG,WAI KEK STREET,10,,3227424987T20050430
Point,114.12709,22.36486,825079,831141,3114325077T20050430,盛逸樓,葵青區,新界,室,101,,1,1樓,,,葵盛東邨,,,,,,,葵涌,葵盛圍,63,,SHING YAT HOUSE,KWAI TSING DISTRICT,NT,FLAT,101,,1,1/F,,,,KWAI SHING EAST ESTATE,,,,,,,KWAI CHUNG,KWAI SHING CIRCUIT,63,,3114325077T20050430
Point,114.12987,22.36075,824624,831426,3142724636T20050430,葵信樓,葵青區,新界,室,201,,2,2樓,,,葵芳邨,,,,,,,葵涌,興芳路,177,,KWAI SHUN HOUSE,KWAI TSING DISTRICT,NT,FLAT,201,,2,2/F,,,,KWAI FONG ESTATE,,,,,,,KWAI CHUNG,HING FONG ROAD,177,,3142724636T20050430
Point,114.1418,22.36991,825638,832656,3264825632T20050430,澤蔭樓,葵青區,新界,室,101,,1,1樓,座,6,安蔭邨,,,,,,,葵涌,安足街,7,,CHAK YAM HSE,KWAI TSING DISTRICT,NT,FLAT,101,,1,1/F,BLK,6,Y,ON YAM ESTATE,,,,,,,KWAI CHUNG,ON CHUK STREET,7,,3264825632T20050430
Point,114.14155,22.37278,825956,832630,3263325958T20050430,嘉蔭樓,葵青區,新界,室,101,,1,1樓,座,1,安蔭邨,,,,,,,葵涌,安足街,7,,KAR YAM HOUSE,KWAI TSING DISTRICT,NT,FLAT,101,,1,1/F,BLK,1,Y,ON YAM ESTATE,,,,,,,KWAI CHUNG,ON CHUK STREET,7,,3263325958T20050430
Point,114.12317,22.3678,825404,830737,3073725404T20050430,富強樓,葵青區,新界,室,201,,2,2樓,,,大窩口邨,,,,,,,葵涌,大窩口道,15,,FU KEUNG HOUSE,KWAI TSING DISTRICT,NT,FLAT,201,,2,2/F,,,,TAI WO HAU ESTATE,,,,,,,KWAI CHUNG,TAI WO HAU ROAD,15,,3073725404T20050430
Point,114.09552,22.35585,824082,827888,2788324079T20050430,宏心樓,葵青區,新界,室,101,,1,1樓,座,5,長宏邨,,,,,,,青衣,寮肚路,9,,WANG SUM HSE,KWAI TSING DISTRICT,NT,FLAT,101,,1,1/F,BLK,5,Y,CHEUNG WANG ESTATE,,,,,,,TSING YI,LIU TO ROAD,9,,2788324079T20050430
Point,114.09504,22.35561,824057,827839,2783424054T20050430,宏意樓,葵青區,新界,室,101,,1,1樓,座,6,長宏邨,,,,,,,青衣,寮肚路,9,,WANG YEE HSE,KWAI TSING DISTRICT,NT,FLAT,101,,1,1/F,BLK,6,Y,CHEUNG WANG ESTATE,,,,,,,TSING YI,LIU TO ROAD,9,,2783424054T20050430
Point,114.09524,22.35633,824136,827860,2785824134T20050430,宏善樓,葵青區,新界,室,101,,1,1樓,座,7,長宏邨,,,,,,,青衣,寮肚路,9,,WANG SIN HSE,KWAI TSING DISTRICT,NT,FLAT,101,,1,1/F,BLK,7,Y,CHEUNG WANG ESTATE,,,,,,,TSING YI,LIU TO ROAD,9,,2785824134T20050430
Point,114.1397,22.37282,825960,832440,3243425960T20050430,蔭恆樓,葵青區,新界,室,101,,1,1樓,座,2,石蔭東邨,,,,,,,葵涌,大白田街,130,,YAM HENG HOUSE,KWAI TSING DISTRICT,NT,FLAT,101,,1,1/F,BLK,2,Y,SHEK YAM EAST ESTATE,,,,,,,KWAI CHUNG,TAI PAK TIN STREET,130,,3243425960T20050430
Point,114.1306,22.36638,825247,831502,3150725245T20050430,春葵樓,葵青區,新界,室,101,,1,1樓,座,1,葵涌邨,,,,,,,,,,,CHUN KWAI HOUSE,KWAI TSING DISTRICT,NT,FLAT,101,,1,1/F,BLK,1,Y,KWAI CHUNG ESTATE,,,,,,,,,,,3150725245T20050430
Point,114.10208,22.36062,824610,828565,2858524666T20050430,安濤樓,葵青區,新界,室,301,,3,3樓,座,4,長安邨,,,,,,,青衣,担杆山路,1,,ON TAO HOUSE,KWAI TSING DISTRICT,NT,FLAT,301,,3,3/F,BLK,4,Y,CHEUNG ON ESTATE,,,,,,,TSING YI,TAM KON SHAN ROAD,1,,2858524666T20050430
Point,114.10124,22.36176,824737,828478,2848824717T20050430,安洋樓,葵青區,新界,室,201,,2,2樓,座,2,長安邨,,,,,,,青衣,担杆山路,1,,ON YEUNG HOUSE,KWAI TSING DISTRICT,NT,FLAT,201,,2,2/F,BLK,2,Y,CHEUNG ON ESTATE,,,,,,,TSING YI,TAM KON SHAN ROAD,1,,2848824717T20050430
Point,114.12625,22.36363,824942,831054,3105424942T20050430,盛興樓,葵青區,新界,室,101,,1,1樓,,,葵盛東邨,,,,,,,葵涌,葵盛圍,63,,SHING HING HOUSE,KWAI TSING DISTRICT,NT,FLAT,101,,1,1/F,,,,KWAI SHING EAST ESTATE,,,,,,,KWAI CHUNG,KWAI SHING CIRCUIT,63,,3105424942T20050430
Point,114.12507,22.36938,825580,830932,3092025571T20050430,富雅樓,葵青區,新界,室,201,,2,2樓,,,大窩口邨,,,,,,,葵涌,大窩口道,15,,FU NGA HOUSE,KWAI TSING DISTRICT,NT,FLAT,201,,2,2/F,,,,TAI WO HAU ESTATE,,,,,,,KWAI CHUNG,TAI WO HAU ROAD,15,,3092025571T20050430
Point,114.12394,22.36311,824885,830816,3087324878T20050430,,葵青區,新界,室,237,,2,2樓,座,1,葵盛西邨,,,,,,,,,,,,KWAI TSING DISTRICT,NT,FLAT,237,,2,2/F,BLK,1,Y,KWAI SHING WEST ESTATE,,,,,,,,,,,3083224883T20050430
Point,114.10862,22.34472,822850,829237,2928622835T20050430,青榕樓,葵青區,新界,室,201,,2,2樓,,,長青邨,,,,,,,,,,,CHING YUNG HOUSE,KWAI TSING DISTRICT,NT,FLAT,201,,2,2/F,,,,CHEUNG CHING ESTATE,,,,,,,,,,,2923622850T20050430
Point,114.10817,22.34972,823403,829191,2916823413T20050430,青楊樓,葵青區,新界,室,201,,2,2樓,,,長青邨,,,,,,,,,,,CHING YEUNG HOUSE,KWAI TSING DISTRICT,NT,FLAT,201,,2,2/F,,,,CHEUNG CHING ESTATE,,,,,,,,,,,2916823413T20050430
Point,114.13017,22.35895,824424,831457,3146224423T20050430,葵愛樓,葵青區,新界,室,101,,1,1樓,,,葵芳邨,,,,,,,葵涌,興芳路,177,,KWAI OI HOUSE,KWAI TSING DISTRICT,NT,FLAT,101,,1,1/F,,,,KWAI FONG ESTATE,,,,,,,KWAI CHUNG,HING FONG ROAD,177,,3146224423T20050430
Point,114.12357,22.36256,824824,830778,3082124817T20050430,,葵青區,新界,室,35,,,0樓,座,3,葵盛西邨,,,,,,,,,,,,KWAI TSING DISTRICT,NT,FLAT,35,,,0/F,BLK,3,Y,KWAI SHING WEST ESTATE,,,,,,,,,,,3081024823T20050430
Point,114.14247,22.37126,825787,832725,3271925774T20050430,耀蔭樓,葵青區,新界,室,101,,1,1樓,座,4,安蔭邨,,,,,,,葵涌,安足街,7,,YIU YAM HOUSE,KWAI TSING DISTRICT,NT,FLAT,101,,1,1/F,BLK,4,Y,ON YAM ESTATE,,,,,,,KWAI CHUNG,ON CHUK STREET,7,,3271925774T20050430
Point,114.12817,22.35861,824386,831251,3127024365T20050430,葵仁樓,葵青區,新界,室,201,,2,2樓,,,葵芳邨,,,,,,,葵涌,興芳路,177,,KWAI YAN HOUSE,KWAI TSING DISTRICT,NT,FLAT,201,,2,2/F,,,,KWAI FONG ESTATE,,,,,,,KWAI CHUNG,HING FONG ROAD,177,,3127024365T20050430
Point,114.13021,22.35423,823902,831461,3146523908T20050430,富瑤樓,葵青區,新界,室,201,,2,2樓,,,麗瑤邨,,,,,,,,,,,FU YIU HOUSE,KWAI TSING DISTRICT,NT,FLAT,201,,2,2/F,,,,LAI YIU ESTATE,,,,,,,,,,,3146523908T20050430
Point,114.10599,22.34952,823381,828966,2896623380T20050430,康榮樓,葵青區,新界,室,201,,2,2樓,,,長康邨,,,,,,,青衣,青康路,12,,HONG WING HOUSE,KWAI TSING DISTRICT,NT,FLAT,201,,2,2/F,,,,CHEUNG HONG ESTATE,,,,,,,TSING YI,CHING HONG ROAD,12,,2896623380T20050430
Point,114.12687,22.36541,825140,831117,3111625140T20050430,盛和樓,葵青區,新界,室,801,,8,8樓,,,葵盛東邨,,,,,,,葵涌,葵盛圍,63,,SHING WO HSE,KWAI TSING DISTRICT,NT,FLAT,801,,8,8/F,,,,KWAI SHING EAST ESTATE,,,,,,,KWAI CHUNG,KWAI SHING CIRCUIT,63,,3111625140T20050430
Point,114.13881,22.37131,825793,832348,3234825793T20050430,智石樓,葵青區,新界,室,101,,1,1樓,,,石蔭邨,,,,,,,葵涌,梨木道,120,,CHI SHEK HSE,KWAI TSING DISTRICT,NT,FLAT,101,,1,1/F,,,,SHEK YAM ESTATE,,,,,,,KWAI CHUNG,LEI MUK ROAD,120,,3234825793T20050430
Point,114.13017,22.3673,825349,831458,3145825350T20050430,秋葵樓,葵青區,新界,室,101,,1,1樓,座,3,葵涌邨,,,,,,,,,,,CHAU KWAI HOUSE,KWAI TSING DISTRICT,NT,FLAT,101,,1,1/F,BLK,3,Y,KWAI CHUNG ESTATE,,,,,,,,,,,3145825350T20050430
Point,114.10344,22.35553,824047,828704,2872124030T20050430,宜偉樓,葵青區,新界,室,207,,2,2樓,,,青衣邨,,,,,,,青衣,楓樹窩路,10,,YEE WAI HOUSE,KWAI TSING DISTRICT,NT,FLAT,207,,2,2/F,,,,TSING YI ESTATE,,,,,,,TSING YI,FUNG SHUE WO ROAD,10,,2872124030T20050430
Point,114.12212,22.36655,825266,830628,3063025269T20050430,富賢樓,葵青區,新界,室,101,,1,1樓,,,大窩口邨,,,,,,,葵涌,大窩口道,15,,FU YIN HOUSE,KWAI TSING DISTRICT,NT,FLAT,101,,1,1/F,,,,TAI WO HAU ESTATE,,,,,,,KWAI CHUNG,TAI WO HAU ROAD,15,,3063025269T20050430
Point,114.09847,22.35402,823880,828192,2819423892T20050430,亨麗樓,葵青區,新界,室,101,,1,1樓,座,2,長亨邨,,,,,,,青衣,寮肚路,6,,HANG LAI HOUSE,KWAI TSING DISTRICT,NT,FLAT,101,,1,1/F,BLK,2,Y,CHEUNG HANG ESTATE,,,,,,,TSING YI,LIU TO ROAD,6,,2819423892T20050430
Point,114.10121,22.361,824652,828475,2847724654T20050430,安江樓,葵青區,新界,室,201,,2,2樓,座,3,長安邨,,,,,,,青衣,担杆山路,1,,ON KONG HOUSE,KWAI TSING DISTRICT,NT,FLAT,201,,2,2/F,BLK,3,Y,CHEUNG ON ESTATE,,,,,,,TSING YI,TAM KON SHAN ROAD,1,,2847724654T20050430
Point,114.12644,22.36904,825542,831074,3107325542T20050729,映葵樓,葵青區,新界,室,101,,1,1樓,座,15,葵涌邨,,,,,,,,,,,YING KWAI HSE,KWAI TSING DISTRICT,NT,FLAT,101,,1,1/F,BLK,15,Y,KWAI CHUNG ESTATE,,,,,,,,,,,3107325542T20050729
Point,114.12743,22.36939,825580,831176,3117625596T20050729,逸葵樓,葵青區,新界,室,101,,1,1樓,座,18-19,葵涌邨,,,,,,,,,,,YAT KWAI HSE,KWAI TSING DISTRICT,NT,FLAT,101,,1,1/F,BLK,18-19,Y,KWAI CHUNG ESTATE,,,,,,,,,,,3117625596T20050729
Point,114.09689,22.35657,824163,828030,2803124163T20050430,宏文樓,葵青區,新界,室,101,,1,1樓,座,1,長宏邨,,,,,,,青衣,寮肚路,9,,WANG MAN HSE,KWAI TSING DISTRICT,NT,FLAT,101,,1,1/F,BLK,1,Y,CHEUNG WANG ESTATE,,,,,,,TSING YI,LIU TO ROAD,9,,2803124163T20050430
Point,114.09621,22.35668,824175,827959,2795824175T20050430,宏毅樓,葵青區,新界,室,101,,1,1樓,座,3,長宏邨,,,,,,,青衣,寮肚路,9,,WANG NGAI HSE,KWAI TSING DISTRICT,NT,FLAT,101,,1,1/F,BLK,3,Y,CHEUNG WANG ESTATE,,,,,,,TSING YI,LIU TO ROAD,9,,2795824175T20050430
Point,114.12366,22.36283,824854,830787,3078724862T20050430,,葵青區,新界,室,201,,2,2樓,座,2,葵盛西邨,,,,,,,,,,,,KWAI TSING DISTRICT,NT,FLAT,201,,2,2/F,BLK,2,Y,KWAI SHING WEST ESTATE,,,,,,,,,,,3078724862T20050430
Point,114.10179,22.35031,823468,828534,2854923470T20050430,康豐樓,葵青區,新界,室,A0201,,2,2樓,,,長康邨,,,,,,,青衣,青康路,12,,HONG FUNG HOUSE,KWAI TSING DISTRICT,NT,FLAT,A0201,,2,2/F,,,,CHEUNG HONG ESTATE,,,,,,,TSING YI,CHING HONG ROAD,12,,2854923470T20050430
Point,114.12894,22.35984,824523,831331,3134124547T20050430,葵健樓,葵青區,新界,室,101,,1,1樓,,,葵芳邨,,,,,,,葵涌,興芳路,177,,KWAI KIN HOUSE,KWAI TSING DISTRICT,NT,FLAT,101,,1,1/F,,,,KWAI FONG ESTATE,,,,,,,KWAI CHUNG,HING FONG ROAD,177,,3134124547T20050430
Point,114.13057,22.36686,825301,831499,3150325301T20050430,夏葵樓,葵青區,新界,室,101,,1,1樓,座,2,葵涌邨,,,,,,,,,,,HA KWAI HOUSE,KWAI TSING DISTRICT,NT,FLAT,101,,1,1/F,BLK,2,Y,KWAI CHUNG ESTATE,,,,,,,,,,,3150325301T20050430
Point,114.12951,22.35987,824526,831389,3138524512T20050430,葵智樓,葵青區,新界,室,201,,2,2樓,,,葵芳邨,,,,,,,葵涌,興芳路,177,,KWAI CHI HOUSE,KWAI TSING DISTRICT,NT,FLAT,201,,2,2/F,,,,KWAI FONG ESTATE,,,,,,,KWAI CHUNG,HING FONG ROAD,177,,3138524512T20050430
Point,114.1277,22.36653,825264,831204,3120825262T20050430,茵葵樓,葵青區,新界,室,101,,1,1樓,,,葵涌邨,,,,,,,,,,,YAN KWAI HOUSE,KWAI TSING DISTRICT,NT,FLAT,101,,1,1/F,,,,KWAI CHUNG ESTATE,,,,,,,,,,,3120825262T20050430
Point,114.13194,22.35439,823919,831640,3161423930T20050430,榮瑤樓,葵青區,新界,室,1,,,0樓,,,麗瑤邨,,,,,,,,,,,WING YIU HOUSE,KWAI TSING DISTRICT,NT,FLAT,1,,,0/F,,,,LAI YIU ESTATE,,,,,,,,,,,3161423930T20050430
Point,114.12942,22.3592,824452,831380,3138124454T20050430,葵泰樓,葵青區,新界,室,101,,1,1樓,,,葵芳邨,,,,,,,葵涌,興芳路,177,,KWAI TAI HOUSE,KWAI TSING DISTRICT,NT,FLAT,101,,1,1/F,,,,KWAI FONG ESTATE,,,,,,,KWAI CHUNG,HING FONG ROAD,177,,3138124454T20050430
Point,114.10307,22.36074,824623,828666,2867024625T20050430,安潤樓,葵青區,新界,室,201,,2,2樓,座,9,長安邨,,,,,,,青衣,担杆山路,1,,ON YUN HOUSE,KWAI TSING DISTRICT,NT,FLAT,201,,2,2/F,BLK,9,Y,CHEUNG ON ESTATE,,,,,,,TSING YI,TAM KON SHAN ROAD,1,,2867024625T20050430
Point,114.13719,22.36216,824779,832181,3218424765T20050430,石秀樓,葵青區,新界,室,201,,2,2樓,,,石籬邨,,,,,,,葵涌,梨貝街,20,,SHEK SAU HOUSE,KWAI TSING DISTRICT,NT,FLAT,201,,2,2/F,,,,SHEK LEI ESTATE,,,,,,,KWAI CHUNG,LEI PUI STREET,20,,3218424765T20050430
Point,114.12318,22.36227,824792,830738,3074224777T20050430,,葵青區,新界,室,103,,1,1樓,座,4,葵盛西邨,,,,,,,,,,,,KWAI TSING DISTRICT,NT,FLAT,103,,1,1/F,BLK,4,Y,KWAI SHING WEST ESTATE,,,,,,,,,,,3074224777T20050430
Point,114.10944,22.3458,822969,829322,2937322993T20050430,青葵樓,葵青區,新界,室,501,,5,5樓,,,長青邨,,,,,,,,,,,CHING KWAI HOUSE,KWAI TSING DISTRICT,NT,FLAT,501,,5,5/F,,,,CHEUNG CHING ESTATE,,,,,,,,,,,2934522982T20050430
Point,114.14036,22.36438,825025,832507,3251025029T20050430,石佳樓,葵青區,新界,室,201,,2,2樓,,,石籬邨,,,,,,,葵涌,梨貝街,4,,SHEK KAI HSE,KWAI TSING DISTRICT,NT,FLAT,201,,2,2/F,,,,SHEK LEI ESTATE,,,,,,,KWAI CHUNG,LEI PUI STREET,4,,3251025029T20050430
Point,114.12427,22.36711,825329,830850,3085025320T20050430,富榮樓,葵青區,新界,室,201,,2,2樓,,,大窩口邨,,,,,,,葵涌,大窩口道,15,,FU WING HOUSE,KWAI TSING DISTRICT,NT,FLAT,201,,2,2/F,,,,TAI WO HAU ESTATE,,,,,,,KWAI CHUNG,TAI WO HAU ROAD,15,,3085025320T20050430
Point,114.1253,22.36244,824811,830956,3098724838T20110523,聯欣樓,葵青區,新界,室,101,,1,1樓,座,1,葵聯邨,,,,,,,葵涌,葵聯路,80,,LUEN YAN HOUSE,KWAI TSING DISTRICT,NT,FLAT,101,,1,1/F,BLK,1,Y,KWAI LUEN ESTATE,,,,,,,KWAI CHUNG,KWAI LUEN ROAD,80,,3095624812T20110524
Point,114.12633,22.35001,823435,831061,3107023433T20050430,明景樓,葵青區,新界,室,1,,,L1樓,,,荔景邨,,,,,,,,,,,MING KING HOUSE,KWAI TSING DISTRICT,NT,FLAT,1,,,L1/F,,,,LAI KING ESTATE,,,,,,,,,,,3107023433T20050430
Point,114.09942,22.35039,823478,828290,2827423479T20050430,康美樓,葵青區,新界,室,A0201,,2,2樓,,,長康邨,,,,,,,青衣,青康路,12,,HONG MEI HOUSE,KWAI TSING DISTRICT,NT,FLAT,A0201,,2,2/F,,,,CHEUNG HONG ESTATE,,,,,,,TSING YI,CHING HONG ROAD,12,,2827423479T20050430
Point,114.10378,22.36192,824754,828740,2876424772T20050430,敬發樓,葵青區,新界,室,201,,2,2樓,座,1,長發邨,,,,,,,青衣,担杆山路,6,,KING FAT HOUSE,KWAI TSING DISTRICT,NT,FLAT,201,,2,2/F,BLK,1,Y,CHEUNG FAT ESTATE,,,,,,,TSING YI,TAM KON SHAN ROAD,6,,2876424772T20050430
Point,114.09594,22.35608,824108,827932,2793224106T20050430,宏勇樓,葵青區,新界,室,101,,1,1樓,座,4,長宏邨,,,,,,,青衣,寮肚路,9,,WANG YUNG HSE,KWAI TSING DISTRICT,NT,FLAT,101,,1,1/F,BLK,4,Y,CHEUNG WANG ESTATE,,,,,,,TSING YI,LIU TO ROAD,9,,2793224106T20050430
Point,114.10011,22.34997,823431,828361,2834623438T20050430,康順樓,葵青區,新界,室,A0201,,2,2樓,,,長康邨,,,,,,,青衣,青康路,12,,HONG SHUN HOUSE,KWAI TSING DISTRICT,NT,FLAT,A0201,,2,2/F,,,,CHEUNG HONG ESTATE,,,,,,,TSING YI,CHING HONG ROAD,12,,2834623438T20050430
Point,114.12957,22.35838,824361,831396,3139624361T20050430,葵明樓,葵青區,新界,室,101F,,1,1樓,,,葵芳邨,,,,,,,葵涌,興芳路,177,,KWAI MING HOUSE,KWAI TSING DISTRICT,NT,FLAT,101F,,1,1/F,,,,KWAI FONG ESTATE,,,,,,,KWAI CHUNG,HING FONG ROAD,177,,3139624361T20050430
Point,114.1421,22.37252,825926,832687,3268725927T20050430,康蔭樓,葵青區,新界,室,101,,1,1樓,座,2,安蔭邨,,,,,,,葵涌,安足街,7,,HONG YAM HOUSE,KWAI TSING DISTRICT,NT,FLAT,101,,1,1/F,BLK,2,Y,ON YAM ESTATE,,,,,,,KWAI CHUNG,ON CHUK STREET,7,,3268725927T20050430
Point,114.09814,22.35316,823785,828158,2815623789T20050430,亨翠樓,葵青區,新界,室,101,,1,1樓,座,1,長亨邨,,,,,,,青衣,寮肚路,6,,HANG CHUI HOUSE,KWAI TSING DISTRICT,NT,FLAT,101,,1,1/F,BLK,1,Y,CHEUNG HANG ESTATE,,,,,,,TSING YI,LIU TO ROAD,6,,2815623789T20050430
Point,114.10839,22.34565,822953,829213,2916822954T20050430,青槐樓,葵青區,新界,室,201,,2,2樓,,,長青邨,,,,,,,,,,,CHING WAI HOUSE,KWAI TSING DISTRICT,NT,FLAT,201,,2,2/F,,,,CHEUNG CHING ESTATE,,,,,,,,,,,2921622946T20050430
Point,114.12376,22.36887,825523,830798,3079725523T20050430,富邦樓,葵青區,新界,室,209,,2,2樓,,,大窩口邨,,,,,,,葵涌,大窩口道,15,,FU PONG HOUSE,KWAI TSING DISTRICT,NT,FLAT,209,,2,2/F,,,,TAI WO HAU ESTATE,,,,,,,KWAI CHUNG,TAI WO HAU ROAD,15,,3079725523T20050430
Point,114.12451,22.36974,825619,830875,3087225590T20050430,富秀樓,葵青區,新界,室,201,,2,2樓,,,大窩口邨,,,,,,,葵涌,大窩口道,15,,FU SAU HOUSE,KWAI TSING DISTRICT,NT,FLAT,201,,2,2/F,,,,TAI WO HAU ESTATE,,,,,,,KWAI CHUNG,TAI WO HAU ROAD,15,,3087225590T20050430
Point,114.1269,22.35137,823585,831120,3109923586T20050430,和景樓,葵青區,新界,室,201,,2,2樓,,,荔景邨,,,,,,,,,,,WO KING HOUSE,KWAI TSING DISTRICT,NT,FLAT,201,,2,2/F,,,,LAI KING ESTATE,,,,,,,,,,,3109923586T20050430
Point,114.1399,22.36291,824863,832460,3247124864T20050430,石興樓,葵青區,新界,室,201,,2,2樓,,,石籬邨,,,,,,,葵涌,寶梨街,7,,SHEK HING HOUSE,KWAI TSING DISTRICT,NT,FLAT,201,,2,2/F,,,,SHEK LEI ESTATE,,,,,,,KWAI CHUNG,PO LEI STREET,7,,3247124864T20050430
Point,114.10406,22.35032,823470,828767,2876723473T20050430,康平樓,葵青區,新界,室,201,,2,2樓,,,長康邨,,,,,,,青衣,青康路,12,,HONG PING HOUSE,KWAI TSING DISTRICT,NT,FLAT,201,,2,2/F,,,,CHEUNG HONG ESTATE,,,,,,,TSING YI,CHING HONG ROAD,12,,2876723473T20050430
Point,114.10377,22.36036,824582,828738,2873924582T20050430,,葵青區,新界,室,1A,,1,1樓,座,1,青逸軒,,,,,,,青衣,青敬路,2,,,KWAI TSING DISTRICT,NT,FLAT,1A,,1,1/F,TOWER,1,Y,EASEFUL COURT,,,,,,,TSING YI,TSING KING ROAD,2,,2873924582T20050430
Point,114.13921,22.371,825759,832389,3238925757T20050430,仁石樓,葵青區,新界,室,101,,1,1樓,,,石蔭邨,,,,,,,葵涌,梨木道,120,,YAN SHEK HSE,KWAI TSING DISTRICT,NT,FLAT,101,,1,1/F,,,,SHEK YAM ESTATE,,,,,,,KWAI CHUNG,LEI MUK ROAD,120,,3238925757T20050430
Point,114.10367,22.35984,824524,828728,2873024523T20050430,,葵青區,新界,室,1A,,1,1樓,座,2,青逸軒,,,,,,,青衣,青敬路,2,,,KWAI TSING DISTRICT,NT,FLAT,1A,,1,1/F,TOWER,2,Y,EASEFUL COURT,,,,,,,TSING YI,TSING KING ROAD,2,,2873024523T20050430
Point,114.14064,22.3679,825415,832536,3253725416T20050430,石祥樓,葵青區,新界,室,101,,1,1樓,,,石籬(二)邨,,,,,,,葵涌,大白田街,12,,SHEK CHEUNG HOUSE,KWAI TSING DISTRICT,NT,FLAT,101,,1,1/F,,,,SHEK LEI (II) ESTATE,,,,,,,KWAI CHUNG,TAI PAK TIN STREET,12,,3253725416T20050430
Point,114.13757,22.34226,822576,832219,3221922577T20050430,賞荔樓,葵青區,新界,室,101,,1,1樓,,,華荔邨,,,,,,,葵涌,荔景山路,282,,SEUNG LAI HSE,KWAI TSING DISTRICT,NT,FLAT,101,,1,1/F,,,,WAH LAI ESTATE,,,,,,,KWAI CHUNG,LAI KING HILL ROAD,282,,3221922577T20050430
Point,114.12177,22.36163,824721,830592,3057724732T20050430,,葵青區,新界,室,201,,2,2樓,座,6,葵盛西邨,,,,,,,,,,,,KWAI TSING DISTRICT,NT,FLAT,201,,2,2/F,BLK,6,Y,KWAI SHING WEST ESTATE,,,,,,,,,,,3054124722T20050430
Point,114.10476,22.35036,823474,828840,2885223475T20050430,康泰樓,葵青區,新界,室,201,,2,2樓,,,長康邨,,,,,,,青衣,青康路,12,,HONG TAI HOUSE,KWAI TSING DISTRICT,NT,FLAT,201,,2,2/F,,,,CHEUNG HONG ESTATE,,,,,,,TSING YI,CHING HONG ROAD,12,,2885223475T20050430
Point,114.13783,22.36187,824747,832246,3226124749T20050430,石寧樓,葵青區,新界,室,301,,3,3樓,,,石籬邨,,,,,,,葵涌,梨貝街,22,,SHEK NING HOUSE,KWAI TSING DISTRICT,NT,FLAT,301,,3,3/F,,,,SHEK LEI ESTATE,,,,,,,KWAI CHUNG,LEI PUI STREET,22,,3226124749T20050430
Point,114.1253,22.36903,825541,830957,3095025541T20050430,富逸樓,葵青區,新界,室,201,,2,2樓,,,大窩口邨,,,,,,,葵涌,大窩口道,15,,FU YAT HOUSE,KWAI TSING DISTRICT,NT,FLAT,201,,2,2/F,,,,TAI WO HAU ESTATE,,,,,,,KWAI CHUNG,TAI WO HAU ROAD,15,,3095025541T20050430
Point,114.14034,22.3728,825958,832506,3250525960T20050430,蔭興樓,葵青區,新界,室,101,,1,1樓,座,3,石蔭東邨,,,,,,,葵涌,大白田街,130,,YAM HING HOUSE,KWAI TSING DISTRICT,NT,FLAT,101,,1,1/F,BLK,3,Y,SHEK YAM EAST ESTATE,,,,,,,KWAI CHUNG,TAI PAK TIN STREET,130,,3250525960T20050430
Point,114.09644,22.35632,824134,827983,2798224134T20050430,宏正樓,葵青區,新界,室,101,,1,1樓,座,2,長宏邨,,,,,,,青衣,寮肚路,9,,WANG CHING HSE,KWAI TSING DISTRICT,NT,FLAT,101,,1,1/F,BLK,2,Y,CHEUNG WANG ESTATE,,,,,,,TSING YI,LIU TO ROAD,9,,2798224134T20050430
Point,114.13981,22.36677,825290,832451,3245625284T20050430,石禧樓,葵青區,新界,室,101,,1,1樓,,,石籬(二)邨,,,,,,,葵涌,大白田街,8,,SHEK HEI HSE,KWAI TSING DISTRICT,NT,FLAT,101,,1,1/F,,,,SHEK LEI (II) ESTATE,,,,,,,KWAI CHUNG,TAI PAK TIN STREET,8,,3245625284T20050430
Point,114.1394,22.36489,825082,832408,3240725083T20070614,石偉樓,葵青區,新界,室,101,,1,1樓,,,石籬(二)邨,,,,,,,葵涌,石梨街,6,,SHEK WAI HSE,KWAI TSING DISTRICT,NT,FLAT,101,,1,1/F,,,,SHEK LEI (II) ESTATE,,,,,,,KWAI CHUNG,SHEK LI STREET,6,,3240725083T20070614
Point,114.1423,22.37087,825744,832707,3270325746T20050430,德蔭樓,葵青區,新界,室,101,,1,1樓,座,5,安蔭邨,,,,,,,葵涌,安足街,7,,TAK YAM HSE,KWAI TSING DISTRICT,NT,FLAT,101,,1,1/F,BLK,5,Y,ON YAM ESTATE,,,,,,,KWAI CHUNG,ON CHUK STREET,7,,3270325746T20050430
Point,114.1387,22.36443,825031,832336,3232725044T20050430,石安樓,葵青區,新界,室,101,,1,1樓,,,石籬邨,,,,,,,葵涌,圍乪街,8,,SHEK ON HSE,KWAI TSING DISTRICT,NT,FLAT,101,,1,1/F,,,,SHEK LEI ESTATE,,,,,,,KWAI CHUNG,WAI KEK STREET,8,,3232725044T20050430
Point,114.1308,22.36872,825506,831523,3152225506T20080514,百葵樓,葵青區,新界,室,101,,1,1樓,座,1,葵涌邨,,,,,,,,,,,PAK KWAI HSE,KWAI TSING DISTRICT,NT,FLAT,101,,1,1/F,BLK,1,N,KWAI CHUNG ESTATE,,,,,,,,,,,3152225506T20080514
Point,114.13122,22.36835,825465,831566,3156625469T20080515,合葵樓,葵青區,新界,室,101,,1,1樓,座,2-2A,葵涌邨,,,,,,,,,,,HOP KWAI HSE,KWAI TSING DISTRICT,NT,FLAT,101,,1,1/F,BLK,2-2A,N,KWAI CHUNG ESTATE,,,,,,,,,,,3156625469T20080515
Point,114.12709,22.36438,825025,831141,3113925020T20050430,盛強樓,葵青區,新界,室,101,,1,1樓,,,葵盛東邨,,,,,,,葵涌,葵盛圍,63,,SHING KEUNG HOUSE,KWAI TSING DISTRICT,NT,FLAT,101,,1,1/F,,,,KWAI SHING EAST ESTATE,,,,,,,KWAI CHUNG,KWAI SHING CIRCUIT,63,,3113925020T20050430
Point,114.12794,22.36712,825329,831228,3122825329T20050624,碧葵樓,葵青區,新界,室,101,,1,1樓,座,7,葵涌邨,,,,,,,,,,,PIK KWAI HSE,KWAI TSING DISTRICT,NT,FLAT,101,,1,1/F,BLK,7,Y,KWAI CHUNG ESTATE,,,,,,,,,,,3122825329T20050624
Point,114.12659,22.36858,825491,831089,3107425491T20050729,曉葵樓,葵青區,新界,室,101,,1,1樓,座,13-14,葵涌邨,,,,,,,,,,,HIU KWAI HSE,KWAI TSING DISTRICT,NT,FLAT,101,,1,1/F,BLK,13-14,Y,KWAI CHUNG ESTATE,,,,,,,,,,,3107425491T20050729
Point,114.14083,22.36693,825308,832556,3255625307T20050430,石廣樓,葵青區,新界,室,101,,1,1樓,,,石籬(二)邨,,,,,,,葵涌,石梨街,15,,SHEK KWONG HSE,KWAI TSING DISTRICT,NT,FLAT,101,,1,1/F,,,,SHEK LEI (II) ESTATE,,,,,,,KWAI CHUNG,SHEK LI STREET,15,,3255625307T20050430
Point,114.12582,22.36184,824745,831009,3101024745T20140822,聯逸樓,葵青區,新界,室,101,,1,1樓,,,葵聯邨,,,,,,,葵涌,葵盛圍,323,,LUEN YAT HOUSE,KWAI TSING DISTRICT,NT,FLAT,101,,1,1/F,,,,KWAI LUEN ESTATE,,,,,,,KWAI CHUNG,KWAI SHING CIRCUIT,323,,3101024745T20140822
Point,114.12647,22.36218,824782,831077,3107424776T20140822,聯悅樓,葵青區,新界,室,201,,2,2樓,,,葵聯邨,,,,,,,葵涌,葵盛圍,323,,LUEN YUET HOUSE,KWAI TSING DISTRICT,NT,FLAT,201,,2,2/F,,,,KWAI LUEN ESTATE,,,,,,,KWAI CHUNG,KWAI SHING CIRCUIT,323,,3107424776T20140822
Point,114.12431,22.36183,824743,830854,3084124744T20110523,聯喜樓,葵青區,新界,室,101,,1,1樓,座,2,葵聯邨,,,,,,,葵涌,葵聯路,80,,LUEN HEI HOUSE,KWAI TSING DISTRICT,NT,FLAT,101,,1,1/F,BLK,2,Y,KWAI LUEN ESTATE,,,,,,,KWAI CHUNG,KWAI LUEN ROAD,80,,3085424744T20110524
Point,114.12924,22.3563,824131,831362,3136124110T20170220,碧翠樓,葵青區,新界,室,101,,1,1樓,座,1,葵翠邨,,,,,,,葵涌,葵義路,11,,BIK TSUI HSE,KWAI TSING DISTRICT,NT,FLAT,101,,1,1/F,BLK,1,N,KWAI TSUI ESTATE,,,,,,,KWAI CHUNG,KWAI YI ROAD,11,,3136124110T20170220
Point,114.12924,22.3563,824131,831362,3136124110T20170220,碧翠樓,葵青區,新界,室,101,,1,1樓,座,1,葵翠邨,,,,,,,葵涌,葵義路,11,,BIK TSUI HSE,KWAI TSING DISTRICT,NT,FLAT,101,,1,1/F,BLK,1,Y,KWAI TSUI ESTATE,,,,,,,KWAI CHUNG,KWAI YI ROAD,11,,3136124110T20170220
Point,114.12872,22.35625,824126,831308,3130824101T20170220,綠翠樓,葵青區,新界,室,101,,1,1樓,座,2,葵翠邨,,,,,,,葵涌,葵義路,11,,LUK TSUI HSE,KWAI TSING DISTRICT,NT,FLAT,101,,1,1/F,BLK,2,Y,KWAI TSUI ESTATE,,,,,,,KWAI CHUNG,KWAI YI ROAD,11,,3130824101T20170220
Point,114.1412,22.36844,825475,832594,3261825514T20130416,石歡樓,葵青區,新界,室,101,,1,1樓,,,石籬(二)邨,,,,,,,葵涌,石梨街,38,,SHEK FOON HOUSE,KWAI TSING DISTRICT,NT,FLAT,101,,1,1/F,,,,SHEK LEI (II) ESTATE,,,,,,,KWAI CHUNG,SHEK LI STREET,38,,3260325471T20130416
Point,114.21671,22.3274,820931,840372,4037020934T20090625,,觀塘區,九龍,,,,,,,,彩福邨,,,,,,,,彩榮路,58,,,KWUN TONG DISTRICT,KLN,,,,,,,,,CHOI FOOK ESTATE,,,,,,,,CHOI WING ROAD,58,,4037020934T20090625
Point,114.23647,22.30824,818809,842408,4240718805T20050430,,觀塘區,九龍,,,,,,,,平田邨,,,,,,,,安田街,18,,,KWUN TONG DISTRICT,KLN,,,,,,,,,PING TIN ESTATE,,,,,,,,ON TIN STREET,18,,4240718805T20050430
Point,114.23022,22.32504,820670,841764,4176420671T20160506,,觀塘區,九龍,,,,,,,,安泰邨,,,,,,,,安秀道,20,,,KWUN TONG DISTRICT,KLN,,,,,,,,,ON TAI ESTATE,,,,,,,,ON SAU ROAD,20,,4176420671T20160506
Point,114.23591,22.30095,818002,842352,4235218003T20050430,,觀塘區,九龍,,,,,,,,油麗邨,,,,,,,,油塘道,9,,,KWUN TONG DISTRICT,KLN,,,,,,,,,YAU LAI ESTATE,,,,,,,,YAU TONG ROAD,9,,4235218003T20050430
Point,114.24114,22.29688,817552,842891,4286117561T20050430,,觀塘區,九龍,,,,,,,,高怡邨,,,,,,,,高超道,28,,,KWUN TONG DISTRICT,KLN,,,,,,,,,KO YEE ESTATE,,,,,,,,KO CHIU ROAD,28,,4286117561T20050430
Point,114.21698,22.31924,820027,840400,4040120022T20050430,常逸樓,觀塘區,九龍,室,101,,1,1樓,座,2,牛頭角上邨,,,,,,,,安德道,15,,SHEUNG YAT HSE,KWUN TONG DISTRICT,KLN,FLAT,101,,1,1/F,BLK,2,Y,UPPER NGAU TAU KOK ESTATE,,,,,,,,ON TAK ROAD,15,,4040120022T20050430
Point,114.22702,22.31709,819789,841434,4143519787T20050430,長安樓,觀塘區,九龍,室,101,,1,1樓,,,和樂邨,,,,,,,,月華街,60,,CHEUNG ON HOUSE,KWUN TONG DISTRICT,KLN,FLAT,101,,1,1/F,,,,WO LOK ESTATE,,,,,,,,YUET WAH STREET,60,,4143519787T20050430
Point,114.22566,22.3281,821008,841294,4127620987T20050430,安群樓,觀塘區,九龍,室,113,,1,1樓,,,順安邨,,,,,,,,利安道,1,,ON KWAN HOUSE,KWUN TONG DISTRICT,KLN,FLAT,113,,1,1/F,,,,SHUN ON ESTATE,,,,,,,,LEE ON ROAD,1,,4127620987T20050430
Point,114.22531,22.32635,820814,841258,4126420821T20050430,天璣樓,觀塘區,九龍,室,301,,3,3樓,,,順天邨,,,,,,,,順安道,9,,TIN KEI HOUSE,KWUN TONG DISTRICT,KLN,FLAT,301,,3,3/F,,,,SHUN TIN ESTATE,,,,,,,,SHUN ON ROAD,9,,4126420821T20050430
Point,114.20983,22.33299,821550,839663,3963421546T20050430,藍石樓,觀塘區,九龍,室,201,,2,2樓,,,坪石邨,,,,,,,,清水灣道,2,,LAM SHEK HOUSE,KWUN TONG DISTRICT,KLN,FLAT,201,,2,2/F,,,,PING SHEK ESTATE,,,,,,,,CLEAR WATER BAY ROAD,2,,3963421546T20050430
Point,114.22755,22.32513,820679,841489,4149120680T20050430,天柱樓,觀塘區,九龍,室,201,,2,2樓,,,順天邨,,,,,,,,順安道,9,,TIN CHU HOUSE,KWUN TONG DISTRICT,KLN,FLAT,201,,2,2/F,,,,SHUN TIN ESTATE,,,,,,,,SHUN ON ROAD,9,,4149120680T20050430
Point,114.20909,22.33216,821457,839587,3958821456T20050430,黃石樓,觀塘區,九龍,室,201,,2,2樓,,,坪石邨,,,,,,,,清水灣道,2,,WONG SHEK HOUSE,KWUN TONG DISTRICT,KLN,FLAT,201,,2,2/F,,,,PING SHEK ESTATE,,,,,,,,CLEAR WATER BAY ROAD,2,,3958821456T20050430
Point,114.2291,22.31554,819617,841648,4164619616T20050430,翠榆樓,觀塘區,九龍,室,202,,2,2樓,,,翠屏(北)邨,,,,,,,,翠屏道,19,,TSUI YUE HOUSE,KWUN TONG DISTRICT,KLN,FLAT,202,,2,2/F,,,,TSUI PING (NORTH) ESTATE,,,,,,,,TSUI PING ROAD,19,,4164619616T20050430
Point,114.22507,22.33298,821549,841233,4123321549T20050430,利祥樓,觀塘區,九龍,室,201,,2,2樓,,,順利邨,,,,,,,,利安道,15,,LEE CHEUNG HOUSE,KWUN TONG DISTRICT,KLN,FLAT,201,,2,2/F,,,,SHUN LEE ESTATE,,,,,,,,LEE ON ROAD,15,,4123321549T20050430
Point,114.23837,22.31019,819025,842604,4260519029T20050430,德禮樓,觀塘區,九龍,室,201,,2,2樓,座,2,德田邨,,,,,,,,碧雲道,223,,TAK LAI HOUSE,KWUN TONG DISTRICT,KLN,FLAT,201,,2,2/F,BLK,2,Y,TAK TIN ESTATE,,,,,,,,PIK WAN ROAD,223,,4260519029T20050430
Point,114.21018,22.33323,821576,839699,3968321586T20050430,金石樓,觀塘區,九龍,室,201,,2,2樓,,,坪石邨,,,,,,,,清水灣道,2,,KAM SHEK HOUSE,KWUN TONG DISTRICT,KLN,FLAT,201,,2,2/F,,,,PING SHEK ESTATE,,,,,,,,CLEAR WATER BAY ROAD,2,,3968321586T20050430
Point,114.23895,22.30743,818720,842664,4264918719T20050430,德盛樓,觀塘區,九龍,室,101,,1,1樓,座,7,德田邨,,,,,,,,碧雲道,223,,TAK SHING HOUSE,KWUN TONG DISTRICT,KLN,FLAT,101,,1,1/F,BLK,7,Y,TAK TIN ESTATE,,,,,,,,PIK WAN ROAD,223,,4264918719T20050430
Point,114.23801,22.31244,819275,842567,4255119275T20050430,恩田樓,觀塘區,九龍,室,201,,2,2樓,,,興田邨,,,,,,,,連德道,8,,YAN TIN HOUSE,KWUN TONG DISTRICT,KLN,FLAT,201,,2,2/F,,,,HING TIN ESTATE,,,,,,,,LIN TAK ROAD,8,,4255119275T20050430
Point,114.23246,22.31787,819875,841995,4198819874T20050430,秀逸樓,觀塘區,九龍,室,101,,1,1樓,,,秀茂坪邨,,,,,,,,秀明道,101,,SAU YAT HOUSE,KWUN TONG DISTRICT,KLN,FLAT,101,,1,1/F,,,,SAU MAU PING ESTATE,,,,,,,,SAU MING ROAD,101,,4198819874T20050430
Point,114.24023,22.30311,818241,842796,4279818252T20050430,廣雅樓,觀塘區,九龍,室,201,,2,2樓,,,廣田邨,,,,,,,,碧雲道,162,,KWONG NGAR HOUSE,KWUN TONG DISTRICT,KLN,FLAT,201,,2,2/F,,,,KWONG TIN ESTATE,,,,,,,,PIK WAN ROAD,162,,4279818252T20050430
Point,114.24039,22.29558,817408,842813,4281317409T20050430,高安閣,觀塘區,九龍,室,101,,1,1樓,座,C,高翔苑,,,,,,,,高超道,32,,KO ON HSE,KWUN TONG DISTRICT,KLN,FLAT,101,,1,1/F,BLK,C,Y,KO CHEUNG COURT,,,,,,,,KO CHIU ROAD,32,,4281317409T20050430
Point,114.23618,22.30188,818105,842379,4237918105T20050430,智麗樓,觀塘區,九龍,室,101,,1,1樓,座,C,油麗邨,,,,,,,,油塘道,9,,CHI LAI HSE,KWUN TONG DISTRICT,KLN,FLAT,101,,1,1/F,BLK,C,Y,YAU LAI ESTATE,,,,,,,,YAU TONG ROAD,9,,4237918105T20050430
Point,114.23591,22.30095,818002,842352,4236318023T20050430,頤麗樓,觀塘區,九龍,室,101,,1,1樓,座,F,油麗邨,,,,,,,,油塘道,9,,YI LAI HSE,KWUN TONG DISTRICT,KLN,FLAT,101,,1,1/F,BLK,F,Y,YAU LAI ESTATE,,,,,,,,YAU TONG ROAD,9,,4235218003T20050430
Point,114.2371,22.30078,817984,842474,4247417984T20050430,美塘樓,觀塘區,九龍,室,101,,1,1樓,,,油塘邨,,,,,,,,,,,MEI TONG HOUSE,KWUN TONG DISTRICT,KLN,FLAT,101,,1,1/F,,,,YAU TONG ESTATE,,,,,,,,,,,4247417984T20050430
Point,114.23372,22.31905,820006,842124,4212620005T20050430,秀程樓,觀塘區,九龍,室,101,,1,1樓,,,秀茂坪邨,,,,,,,,秀明道,101,,SAU CHING HOUSE,KWUN TONG DISTRICT,KLN,FLAT,101,,1,1/F,,,,SAU MAU PING ESTATE,,,,,,,,SAU MING ROAD,101,,4212620005T20050430
Point,114.22874,22.31662,819737,841612,4162019736T20050430,翠楠樓低座,觀塘區,九龍,室,101,,1,1樓,,,翠屏(北)邨,,,,,,,,翠屏道,19,,TSUI NAM HOUSE LOW BLOCK,KWUN TONG DISTRICT,KLN,FLAT,101,,1,1/F,,,,TSUI PING (NORTH) ESTATE,,,,,,,,TSUI PING ROAD,19,,4162019736T20050430
Point,114.23895,22.30813,818797,842664,4266818804T20050430,德康樓,觀塘區,九龍,室,201,,2,2樓,座,6,德田邨,,,,,,,,碧雲道,223,,TAK HONG HOUSE,KWUN TONG DISTRICT,KLN,FLAT,201,,2,2/F,BLK,6,Y,TAK TIN ESTATE,,,,,,,,PIK WAN ROAD,223,,4266818804T20050430
Point,114.23915,22.31758,819844,842684,4268619847T20050430,達欣樓,觀塘區,九龍,室,101,,1,1樓,,,寶達邨,,,,,,,,寶琳路,2,,TAT YAN HOUSE,KWUN TONG DISTRICT,KLN,FLAT,101,,1,1/F,,,,PO TAT ESTATE,,,,,,,,PO LAM ROAD,2,,4268619847T20050430
Point,114.22994,22.31428,819479,841735,4173619479T20050430,翠柳樓,觀塘區,九龍,室,201,,2,2樓,,,翠屏(北)邨,,,,,,,,翠屏道,19,,TSUI LAU HOUSE,KWUN TONG DISTRICT,KLN,FLAT,201,,2,2/F,,,,TSUI PING (NORTH) ESTATE,,,,,,,,TSUI PING ROAD,19,,4173619479T20050430
